RegionID,SizeRank,RegionName,RegionType,StateName,2018-03-31,2018-04-30,2018-05-31,2018-06-30,2018-07-31,2018-08-31,2018-09-30,2018-10-31,2018-11-30,2018-12-31,2019-01-31,2019-02-28,2019-03-31,2019-04-30,2019-05-31,2019-06-30,2019-07-31,2019-08-31,2019-09-30,2019-10-31,2019-11-30,2019-12-31,2020-01-31,2020-02-29,2020-03-31,2020-04-30,2020-05-31,2020-06-30,2020-07-31,2020-08-31,2020-09-30,2020-10-31,2020-11-30,2020-12-31,2021-01-31,2021-02-28,2021-03-31,2021-04-30,2021-05-31,2021-06-30,2021-07-31,2021-08-31,2021-09-30,2021-10-31,2021-11-30,2021-12-31,2022-01-31,2022-02-28,2022-03-31,2022-04-30,2022-05-31,2022-06-30,2022-07-31,2022-08-31,2022-09-30,2022-10-31,2022-11-30,2022-12-31,2023-01-31,2023-02-28,2023-03-31,2023-04-30,2023-05-31,2023-06-30,2023-07-31,2023-08-31,2023-09-30,2023-10-31,2023-11-30,2023-12-31,2024-01-31,city,state_id,state_name,lat,lng,population,density,geometry
394913,1,New York,msa,NY,58.0,43.0,38.0,40.0,43.0,48.0,53.0,55.0,58.0,62.0,72.0,72.0,64.0,51.0,45.0,45.0,49.0,55.0,59.0,59.0,59.0,64.0,74.0,73.0,61.0,49.0,47.0,44.0,38.0,30.0,30.0,31.0,33.0,37.0,47.0,47.0,42.0,30.0,26.0,26.0,29.0,31.0,34.0,35.0,39.0,40.0,44.0,39.0,33.0,24.0,22.0,23.0,26.0,30.0,34.0,35.0,36.0,39.0,47.0,45.0,38.0,27.0,23.0,23.0,24.0,26.0,27.0,27.0,28.0,32.0,37.0,New York,NY,New York,40.6943,-73.9249,18908608,11080.3,POINT (-73.9249 40.6943)
753899,2,Los Angeles,msa,CA,17.0,14.0,15.0,15.0,17.0,19.0,22.0,24.0,27.0,31.0,36.0,35.0,29.0,22.0,20.0,20.0,21.0,22.0,23.0,23.0,24.0,27.0,26.0,22.0,16.0,15.0,15.0,16.0,15.0,14.0,13.0,13.0,13.0,13.0,13.0,12.0,10.0,10.0,10.0,10.0,10.0,11.0,12.0,12.0,12.0,12.0,12.0,11.0,10.0,10.0,10.0,11.0,14.0,17.0,20.0,22.0,23.0,27.0,32.0,30.0,23.0,16.0,13.0,13.0,13.0,13.0,14.0,15.0,16.0,18.0,19.0,Los Angeles,CA,California,34.1141,-118.4068,11922389,3184.7,POINT (-118.4068 34.1141)
394463,3,Chicago,msa,IL,32.0,17.0,15.0,16.0,18.0,21.0,25.0,30.0,35.0,44.0,53.0,47.0,35.0,20.0,18.0,18.0,21.0,24.0,28.0,33.0,38.0,46.0,54.0,47.0,34.0,22.0,20.0,19.0,16.0,14.0,13.0,13.0,14.0,18.0,20.0,18.0,12.0,8.0,6.0,6.0,7.0,9.0,11.0,12.0,14.0,17.0,17.0,14.0,9.0,6.0,6.0,6.0,8.0,11.0,14.0,15.0,18.0,23.0,27.0,24.0,15.0,9.0,7.0,6.0,7.0,8.0,9.0,10.0,12.0,16.0,18.0,Chicago,IL,Illinois,41.8375,-87.6866,8497759,4614.5,POINT (-87.6866 41.8375)
394514,4,Dallas,msa,TX,27.0,21.0,20.0,20.0,22.0,25.0,28.0,31.0,35.0,38.0,42.0,39.0,35.0,28.0,26.0,26.0,27.0,30.0,33.0,36.0,39.0,42.0,45.0,42.0,35.0,28.0,26.0,26.0,25.0,24.0,23.0,22.0,22.0,22.0,22.0,20.0,17.0,15.0,13.0,13.0,13.0,14.0,16.0,17.0,17.0,17.0,16.0,15.0,11.0,8.0,5.0,6.0,7.0,10.0,13.0,16.0,18.0,23.0,29.0,27.0,21.0,12.0,10.0,10.0,12.0,14.0,17.0,19.0,22.0,27.0,32.0,Dallas,TX,Texas,32.7935,-96.7667,5830932,1478.7,POINT (-96.7667 32.7935)
394692,5,Houston,msa,TX,27.0,19.0,16.0,17.0,19.0,22.0,27.0,31.0,33.0,36.0,39.0,37.0,31.0,24.0,21.0,21.0,23.0,26.0,31.0,34.0,36.0,38.0,42.0,38.0,31.0,24.0,23.0,23.0,20.0,18.0,17.0,16.0,15.0,15.0,15.0,13.0,10.0,8.0,7.0,7.0,7.0,8.0,10.0,11.0,11.0,11.0,11.0,10.0,8.0,7.0,7.0,7.0,9.0,12.0,17.0,20.0,23.0,27.0,33.0,33.0,27.0,19.0,15.0,13.0,14.0,16.0,19.0,22.0,25.0,30.0,36.0,Houston,TX,Texas,29.786,-95.3885,5970127,1384.0,POINT (-95.3885 29.786)
395209,6,Washington,msa,DC,37.0,27.0,24.0,21.0,19.0,18.0,19.0,21.0,24.0,31.0,34.0,28.0,19.0,11.0,10.0,12.0,15.0,17.0,18.0,18.0,21.0,26.0,26.0,20.0,11.0,9.0,9.0,10.0,9.0,7.0,9.0,9.0,9.0,7.0,7.0,7.0,5.0,5.0,5.0,5.0,6.0,7.0,8.0,9.0,9.0,10.0,9.0,7.0,5.0,5.0,5.0,6.0,8.0,10.0,12.0,13.0,16.0,21.0,21.0,17.0,10.0,6.0,6.0,6.0,6.0,6.0,7.0,8.0,10.0,13.0,13.0,Washington,DC,District of Columbia,38.9047,-77.0163,5116378,4235.7,POINT (-77.0163 38.9047)
394974,7,Philadelphia,msa,PA,46.0,33.0,27.0,29.0,29.0,29.0,27.0,29.0,32.0,37.0,43.0,40.0,31.0,20.0,16.0,17.0,19.0,22.0,23.0,23.0,25.0,32.0,38.0,34.0,23.0,16.0,16.0,15.0,11.0,9.0,12.0,12.0,13.0,11.0,12.0,11.0,8.0,7.0,6.0,6.0,7.0,9.0,10.0,10.0,10.0,11.0,11.0,10.0,8.0,7.0,7.0,7.0,9.0,10.0,11.0,11.0,12.0,15.0,17.0,15.0,11.0,8.0,7.0,7.0,8.0,8.0,9.0,10.0,11.0,14.0,16.0,Philadelphia,PA,Pennsylvania,40.0077,-75.1339,5683533,4578.4,POINT (-75.1339 40.0077)
394856,8,Miami,msa,FL,43.0,39.0,38.0,38.0,37.0,37.0,38.0,40.0,42.0,45.0,49.0,50.0,47.0,45.0,45.0,45.0,43.0,43.0,43.0,43.0,43.0,45.0,50.0,48.0,43.0,39.0,41.0,43.0,39.0,33.0,28.0,27.0,26.0,28.0,33.0,33.0,29.0,21.0,16.0,14.0,14.0,14.0,15.0,15.0,15.0,15.0,15.0,14.0,12.0,10.0,10.0,11.0,13.0,16.0,19.0,23.0,25.0,29.0,32.0,33.0,32.0,28.0,25.0,22.0,21.0,21.0,21.0,22.0,25.0,30.0,36.0,Miami,FL,Florida,25.784,-80.2101,6080145,4758.9,POINT (-80.2101 25.784)
394347,9,Atlanta,msa,GA,18.0,12.0,11.0,11.0,12.0,13.0,16.0,18.0,20.0,24.0,27.0,25.0,20.0,15.0,14.0,14.0,16.0,18.0,20.0,22.0,24.0,28.0,32.0,30.0,23.0,17.0,17.0,19.0,19.0,17.0,15.0,14.0,14.0,14.0,12.0,10.0,7.0,6.0,6.0,6.0,6.0,7.0,7.0,8.0,8.0,9.0,9.0,8.0,7.0,6.0,6.0,7.0,9.0,11.0,14.0,17.0,21.0,27.0,33.0,31.0,23.0,15.0,12.0,12.0,13.0,15.0,16.0,18.0,22.0,27.0,31.0,Atlanta,GA,Georgia,33.7628,-84.422,5180179,1412.3,POINT (-84.422 33.7628)
394404,10,Boston,msa,MA,13.0,9.0,8.0,8.0,9.0,11.0,12.0,13.0,17.0,24.0,28.0,24.0,16.0,11.0,9.0,9.0,11.0,13.0,14.0,15.0,17.0,25.0,27.0,22.0,13.0,9.0,8.0,8.0,8.0,7.0,8.0,8.0,8.0,10.0,11.0,10.0,7.0,7.0,7.0,7.0,7.0,8.0,8.0,8.0,8.0,9.0,9.0,8.0,7.0,6.0,6.0,8.0,9.0,11.0,10.0,10.0,11.0,15.0,16.0,15.0,10.0,8.0,7.0,7.0,7.0,8.0,8.0,8.0,9.0,11.0,12.0,Boston,MA,Massachusetts,42.3188,-71.0852,4328315,5319.0,POINT (-71.0852 42.3188)
394976,11,Phoenix,msa,AZ,29.0,25.0,25.0,25.0,26.0,26.0,25.0,25.0,29.0,34.0,38.0,35.0,32.0,27.0,27.0,25.0,25.0,23.0,21.0,20.0,21.0,24.0,25.0,23.0,17.0,15.0,17.0,19.0,17.0,13.0,10.0,10.0,11.0,14.0,13.0,11.0,8.0,7.0,6.0,7.0,8.0,9.0,10.0,11.0,12.0,13.0,13.0,11.0,8.0,7.0,8.0,10.0,15.0,21.0,28.0,35.0,40.0,46.0,53.0,51.0,44.0,33.0,29.0,24.0,22.0,20.0,20.0,21.0,24.0,31.0,33.0,Phoenix,AZ,Arizona,33.5722,-112.0892,4064275,1198.9,POINT (-112.0892 33.5722)
395057,12,San Francisco,msa,CA,13.0,12.0,12.0,12.0,13.0,14.0,15.0,16.0,19.0,24.0,25.0,22.0,16.0,14.0,14.0,14.0,15.0,16.0,16.0,16.0,18.0,24.0,23.0,20.0,13.0,13.0,13.0,14.0,13.0,12.0,12.0,12.0,13.0,14.0,13.0,12.0,10.0,9.0,9.0,9.0,10.0,11.0,12.0,12.0,13.0,14.0,12.0,11.0,9.0,9.0,10.0,12.0,15.0,18.0,20.0,21.0,22.0,29.0,33.0,29.0,20.0,13.0,13.0,13.0,13.0,14.0,14.0,14.0,16.0,22.0,22.0,San Francisco,CA,California,37.7558,-122.4449,3364979,7030.7,POINT (-122.4449 37.7558)
395025,13,Riverside,msa,CA,24.0,19.0,19.0,18.0,21.0,24.0,28.0,30.0,33.0,37.0,42.0,41.0,36.0,28.0,26.0,24.0,24.0,24.0,25.0,26.0,27.0,31.0,33.0,30.0,24.0,19.0,18.0,18.0,15.0,12.0,10.0,9.0,9.0,10.0,10.0,10.0,9.0,8.0,8.0,8.0,9.0,10.0,11.0,11.0,12.0,12.0,12.0,11.0,9.0,9.0,10.0,11.0,14.0,19.0,24.0,27.0,30.0,35.0,42.0,39.0,32.0,21.0,17.0,15.0,14.0,15.0,16.0,17.0,20.0,24.0,27.0,Riverside,CA,California,33.9381,-117.3949,2332836,1503.9,POINT (-117.3949 33.9381)
394532,14,Detroit,msa,MI,22.0,11.0,8.0,8.0,9.0,12.0,15.0,18.0,22.0,29.0,36.0,36.0,28.0,17.0,11.0,12.0,14.0,17.0,20.0,24.0,27.0,33.0,40.0,38.0,28.0,21.0,17.0,16.0,10.0,9.0,9.0,9.0,10.0,11.0,16.0,14.0,11.0,5.0,5.0,5.0,6.0,7.0,8.0,9.0,10.0,11.0,11.0,9.0,7.0,5.0,5.0,6.0,7.0,10.0,12.0,14.0,17.0,20.0,24.0,23.0,17.0,10.0,7.0,6.0,6.0,7.0,8.0,10.0,12.0,15.0,18.0,Detroit,MI,Michigan,42.3834,-83.1024,3725908,1772.2,POINT (-83.1024 42.3834)
395078,15,Seattle,msa,WA,8.0,7.0,7.0,7.0,8.0,11.0,14.0,18.0,23.0,30.0,30.0,23.0,13.0,8.0,7.0,8.0,9.0,11.0,12.0,13.0,14.0,17.0,14.0,11.0,6.0,6.0,6.0,6.0,6.0,6.0,6.0,6.0,6.0,6.0,6.0,6.0,6.0,6.0,6.0,6.0,6.0,6.0,6.0,6.0,6.0,6.0,6.0,5.0,5.0,5.0,6.0,6.0,,,,,,,36.0,29.0,17.0,7.0,6.0,6.0,7.0,8.0,9.0,10.0,14.0,19.0,18.0,Seattle,WA,Washington,47.6211,-122.3244,3561397,3376.6,POINT (-122.3244 47.6211)
394865,16,Minneapolis,msa,MN,26.0,18.0,17.0,18.0,19.0,22.0,24.0,27.0,31.0,38.0,45.0,40.0,31.0,20.0,18.0,18.0,20.0,22.0,24.0,27.0,30.0,36.0,39.0,35.0,25.0,18.0,17.0,18.0,18.0,17.0,17.0,17.0,18.0,21.0,22.0,19.0,14.0,10.0,9.0,9.0,10.0,12.0,15.0,16.0,18.0,20.0,19.0,16.0,10.0,8.0,7.0,9.0,12.0,16.0,19.0,21.0,25.0,32.0,39.0,36.0,26.0,14.0,12.0,12.0,13.0,15.0,17.0,19.0,24.0,31.0,37.0,Minneapolis,MN,Minnesota,44.9635,-93.2678,2892569,3052.2,POINT (-93.2678 44.9635)
395056,17,San Diego,msa,CA,16.0,14.0,14.0,16.0,23.0,25.0,28.0,28.0,32.0,37.0,40.0,38.0,31.0,24.0,21.0,20.0,21.0,23.0,24.0,25.0,25.0,27.0,25.0,21.0,14.0,17.0,17.0,18.0,12.0,10.0,8.0,8.0,8.0,9.0,9.0,8.0,7.0,7.0,7.0,7.0,7.0,8.0,9.0,9.0,9.0,8.0,8.0,7.0,7.0,7.0,7.0,9.0,12.0,16.0,19.0,21.0,21.0,25.0,29.0,25.0,18.0,10.0,8.0,8.0,9.0,10.0,10.0,11.0,13.0,16.0,17.0,San Diego,CA,California,32.8313,-117.1222,3046560,1639.7,POINT (-117.1222 32.8313)
395148,18,Tampa,msa,FL,24.0,20.0,19.0,18.0,18.0,19.0,21.0,22.0,23.0,26.0,33.0,34.0,31.0,25.0,24.0,22.0,21.0,21.0,22.0,26.0,27.0,30.0,28.0,25.0,20.0,17.0,17.0,17.0,14.0,11.0,9.0,8.0,8.0,9.0,9.0,8.0,7.0,5.0,5.0,5.0,5.0,5.0,6.0,6.0,6.0,6.0,6.0,6.0,5.0,5.0,5.0,6.0,8.0,11.0,14.0,17.0,19.0,24.0,28.0,28.0,24.0,18.0,15.0,12.0,12.0,13.0,15.0,16.0,20.0,25.0,31.0,Tampa,FL,Florida,27.9945,-82.4447,2861173,1320.9,POINT (-82.4447 27.9945)
394530,19,Denver,msa,CO,6.0,6.0,6.0,6.0,8.0,10.0,12.0,15.0,18.0,23.0,22.0,18.0,11.0,7.0,7.0,8.0,11.0,14.0,16.0,17.0,19.0,23.0,22.0,16.0,9.0,7.0,7.0,8.0,6.0,6.0,6.0,6.0,6.0,6.0,5.0,5.0,5.0,4.0,4.0,4.0,5.0,5.0,5.0,5.0,5.0,5.0,5.0,4.0,4.0,5.0,5.0,5.0,7.0,,,,,,31.0,24.0,15.0,7.0,6.0,6.0,8.0,10.0,12.0,15.0,20.0,26.0,27.0,Denver,CO,Colorado,39.762,-104.8758,2687458,1792.9,POINT (-104.8758 39.762)
394358,20,Baltimore,msa,MD,43.0,31.0,27.0,26.0,27.0,27.0,28.0,30.0,34.0,41.0,47.0,44.0,33.0,21.0,17.0,19.0,23.0,27.0,29.0,30.0,31.0,35.0,41.0,37.0,27.0,16.0,14.0,15.0,13.0,11.0,13.0,12.0,12.0,9.0,9.0,8.0,6.0,5.0,5.0,5.0,6.0,7.0,8.0,8.0,9.0,9.0,9.0,7.0,6.0,5.0,5.0,5.0,6.0,8.0,9.0,10.0,12.0,15.0,16.0,14.0,10.0,6.0,6.0,6.0,6.0,6.0,7.0,8.0,10.0,13.0,15.0,Baltimore,MD,Maryland,39.3051,-76.6144,2196524,2788.2,POINT (-76.6144 39.3051)
395121,21,St. Louis,msa,MO,31.0,21.0,18.0,18.0,19.0,21.0,25.0,27.0,30.0,35.0,43.0,38.0,27.0,14.0,10.0,10.0,12.0,14.0,15.0,16.0,19.0,25.0,30.0,27.0,18.0,10.0,8.0,8.0,7.0,7.0,6.0,6.0,7.0,9.0,10.0,9.0,7.0,5.0,5.0,5.0,5.0,6.0,6.0,6.0,6.0,7.0,7.0,6.0,5.0,5.0,5.0,5.0,5.0,6.0,6.0,7.0,8.0,11.0,12.0,11.0,7.0,5.0,5.0,5.0,5.0,5.0,6.0,7.0,8.0,11.0,13.0,St. Louis,MO,Missouri,38.6359,-90.2451,2130881,1864.3,POINT (-90.2451 38.6359)
394943,22,Orlando,msa,FL,22.0,17.0,15.0,15.0,15.0,16.0,19.0,21.0,26.0,29.0,32.0,29.0,25.0,20.0,18.0,17.0,18.0,19.0,22.0,27.0,28.0,29.0,26.0,24.0,18.0,15.0,15.0,16.0,15.0,13.0,12.0,11.0,12.0,13.0,14.0,13.0,10.0,7.0,6.0,6.0,6.0,6.0,7.0,7.0,7.0,7.0,7.0,6.0,5.0,5.0,6.0,6.0,8.0,11.0,14.0,17.0,20.0,25.0,30.0,29.0,23.0,15.0,12.0,11.0,11.0,13.0,14.0,16.0,19.0,23.0,29.0,Orlando,FL,Florida,28.4773,-81.337,1882705,1070.2,POINT (-81.337 28.4773)
394458,23,Charlotte,msa,NC,13.0,10.0,9.0,10.0,11.0,13.0,16.0,18.0,19.0,23.0,25.0,23.0,17.0,12.0,11.0,11.0,12.0,14.0,15.0,16.0,17.0,21.0,22.0,19.0,13.0,10.0,11.0,11.0,9.0,7.0,6.0,6.0,6.0,6.0,7.0,7.0,6.0,4.0,4.0,4.0,4.0,5.0,5.0,6.0,6.0,6.0,6.0,5.0,4.0,4.0,4.0,4.0,6.0,8.0,11.0,13.0,16.0,21.0,24.0,24.0,18.0,12.0,8.0,7.0,8.0,8.0,10.0,11.0,14.0,19.0,21.0,Charlotte,NC,North Carolina,35.2083,-80.8303,1427444,1089.8,POINT (-80.8303 35.2083)
395055,24,San Antonio,msa,TX,42.0,32.0,30.0,30.0,31.0,32.0,35.0,39.0,42.0,43.0,46.0,45.0,42.0,35.0,32.0,32.0,33.0,35.0,39.0,42.0,45.0,49.0,54.0,52.0,44.0,35.0,32.0,31.0,29.0,27.0,26.0,25.0,26.0,26.0,25.0,19.0,11.0,6.0,5.0,5.0,6.0,6.0,7.0,8.0,8.0,8.0,8.0,8.0,7.0,6.0,6.0,6.0,8.0,11.0,15.0,19.0,23.0,29.0,36.0,37.0,32.0,23.0,19.0,18.0,20.0,23.0,27.0,32.0,36.0,43.0,49.0,San Antonio,TX,Texas,29.4632,-98.5238,2058444,1118.8,POINT (-98.5238 29.4632)
394998,25,Portland,msa,OR,14.0,9.0,8.0,9.0,11.0,15.0,19.0,24.0,30.0,36.0,39.0,32.0,22.0,13.0,10.0,10.0,12.0,15.0,18.0,22.0,24.0,29.0,29.0,23.0,13.0,7.0,8.0,8.0,7.0,6.0,6.0,6.0,7.0,7.0,6.0,6.0,5.0,5.0,5.0,5.0,5.0,6.0,6.0,7.0,7.0,7.0,6.0,6.0,5.0,5.0,5.0,6.0,8.0,12.0,16.0,,21.0,,33.0,29.0,18.0,9.0,7.0,7.0,9.0,11.0,13.0,17.0,21.0,28.0,33.0,Portland,OR,Oregon,45.5371,-122.65,2095808,1868.8,POINT (-122.65 45.5371)
395045,26,Sacramento,msa,CA,13.0,10.0,10.0,10.0,12.0,15.0,18.0,21.0,24.0,28.0,32.0,28.0,20.0,12.0,11.0,11.0,12.0,14.0,15.0,16.0,18.0,22.0,20.0,16.0,10.0,9.0,9.0,10.0,10.0,8.0,7.0,7.0,7.0,8.0,8.0,7.0,6.0,6.0,6.0,6.0,7.0,8.0,8.0,9.0,9.0,9.0,9.0,8.0,7.0,7.0,7.0,9.0,12.0,17.0,21.0,,26.0,30.0,33.0,29.0,21.0,12.0,9.0,8.0,9.0,10.0,11.0,12.0,14.0,18.0,19.0,Sacramento,CA,California,38.5677,-121.4685,1957738,2049.4,POINT (-121.4685 38.5677)
394982,27,Pittsburgh,msa,PA,58.0,38.0,26.0,22.0,22.0,23.0,26.0,31.0,35.0,42.0,50.0,50.0,40.0,27.0,19.0,19.0,19.0,21.0,20.0,22.0,26.0,33.0,39.0,36.0,27.0,22.0,19.0,17.0,9.0,8.0,9.0,10.0,12.0,15.0,17.0,15.0,10.0,6.0,5.0,5.0,6.0,7.0,8.0,10.0,11.0,13.0,14.0,13.0,9.0,6.0,6.0,6.0,7.0,9.0,10.0,11.0,14.0,19.0,24.0,22.0,15.0,8.0,7.0,7.0,7.0,8.0,9.0,10.0,12.0,17.0,23.0,Pittsburgh,PA,Pennsylvania,40.4397,-79.9763,1749091,2118.5,POINT (-79.9763 40.4397)
394466,28,Cincinnati,msa,OH,21.0,12.0,9.0,9.0,9.0,11.0,13.0,16.0,20.0,25.0,30.0,28.0,20.0,12.0,9.0,8.0,9.0,9.0,11.0,12.0,15.0,18.0,18.0,16.0,11.0,7.0,5.0,5.0,4.0,4.0,4.0,4.0,5.0,6.0,6.0,5.0,4.0,3.0,3.0,3.0,4.0,4.0,4.0,5.0,5.0,6.0,6.0,5.0,3.0,3.0,3.0,3.0,4.0,5.0,5.0,6.0,8.0,10.0,11.0,9.0,6.0,4.0,3.0,3.0,4.0,5.0,5.0,6.0,8.0,11.0,13.0,Cincinnati,OH,Ohio,39.1413,-84.506,1692702,1530.6,POINT (-84.506 39.1413)
394355,29,Austin,msa,TX,19.0,12.0,11.0,12.0,15.0,19.0,25.0,29.0,32.0,36.0,36.0,30.0,20.0,12.0,11.0,12.0,14.0,16.0,19.0,20.0,22.0,23.0,23.0,18.0,11.0,9.0,9.0,10.0,9.0,8.0,7.0,7.0,6.0,6.0,6.0,6.0,6.0,8.0,9.0,10.0,11.0,13.0,15.0,17.0,18.0,20.0,20.0,17.0,13.0,10.0,11.0,13.0,18.0,26.0,35.0,42.0,48.0,56.0,64.0,66.0,56.0,43.0,33.0,31.0,34.0,38.0,43.0,49.0,55.0,62.0,66.0,Austin,TX,Texas,30.3005,-97.7522,1905945,1154.1,POINT (-97.7522 30.3005)
394775,30,Las Vegas,msa,NV,29.0,26.0,21.0,17.0,11.0,13.0,16.0,20.0,24.0,29.0,35.0,34.0,32.0,27.0,27.0,27.0,28.0,31.0,33.0,33.0,35.0,38.0,41.0,36.0,25.0,18.0,18.0,22.0,22.0,19.0,17.0,16.0,18.0,20.0,24.0,20.0,15.0,7.0,6.0,6.0,7.0,7.0,8.0,9.0,9.0,10.0,9.0,8.0,6.0,6.0,7.0,8.0,11.0,17.0,25.0,33.0,38.0,47.0,53.0,53.0,43.0,30.0,21.0,16.0,14.0,13.0,14.0,15.0,18.0,24.0,27.0,Las Vegas,NV,Nevada,36.2333,-115.2654,2248047,1755.1,POINT (-115.2654 36.2333)
394735,31,Kansas City,msa,MO,24.0,17.0,15.0,16.0,17.0,19.0,24.0,23.0,23.0,23.0,27.0,25.0,18.0,10.0,7.0,7.0,9.0,11.0,13.0,14.0,16.0,21.0,25.0,21.0,14.0,8.0,6.0,6.0,4.0,4.0,4.0,5.0,5.0,6.0,6.0,5.0,4.0,3.0,3.0,3.0,3.0,4.0,4.0,4.0,5.0,5.0,5.0,4.0,3.0,3.0,3.0,3.0,4.0,5.0,6.0,7.0,9.0,11.0,12.0,10.0,7.0,4.0,4.0,4.0,4.0,5.0,5.0,7.0,9.0,12.0,14.0,Kansas City,MO,Missouri,39.1238,-94.5541,1689556,620.7,POINT (-94.5541 39.1238)
394492,32,Columbus,msa,OH,12.0,6.0,5.0,5.0,6.0,7.0,9.0,11.0,14.0,18.0,22.0,19.0,13.0,7.0,5.0,5.0,6.0,7.0,9.0,10.0,12.0,16.0,17.0,14.0,9.0,5.0,4.0,4.0,4.0,4.0,4.0,5.0,5.0,5.0,5.0,5.0,4.0,3.0,3.0,3.0,4.0,4.0,4.0,4.0,4.0,5.0,5.0,4.0,3.0,3.0,3.0,3.0,4.0,5.0,5.0,6.0,8.0,10.0,11.0,9.0,6.0,4.0,4.0,4.0,4.0,4.0,5.0,6.0,8.0,11.0,12.0,Columbus,OH,Ohio,39.9862,-82.9855,1572546,1581.0,POINT (-82.9855 39.9862)
394705,34,Indianapolis,msa,IN,26.0,18.0,12.0,9.0,8.0,10.0,13.0,15.0,19.0,25.0,30.0,30.0,22.0,13.0,8.0,7.0,8.0,10.0,11.0,13.0,16.0,20.0,25.0,22.0,15.0,8.0,7.0,7.0,5.0,5.0,5.0,5.0,5.0,6.0,6.0,6.0,4.0,4.0,4.0,4.0,4.0,4.0,4.0,5.0,5.0,5.0,5.0,5.0,4.0,4.0,4.0,4.0,5.0,6.0,8.0,9.0,11.0,15.0,,19.0,14.0,7.0,5.0,5.0,6.0,7.0,9.0,10.0,14.0,20.0,25.0,Indianapolis,IN,Indiana,39.7771,-86.1458,1729849,941.8,POINT (-86.1458 39.7771)
394475,35,Cleveland,msa,OH,51.0,40.0,33.0,32.0,34.0,36.0,41.0,43.0,46.0,50.0,55.0,54.0,46.0,38.0,32.0,32.0,32.0,34.0,37.0,39.0,42.0,46.0,48.0,45.0,35.0,27.0,21.0,19.0,16.0,15.0,16.0,15.0,16.0,20.0,24.0,21.0,13.0,5.0,4.0,4.0,5.0,6.0,7.0,7.0,8.0,9.0,9.0,8.0,6.0,5.0,5.0,5.0,5.0,6.0,8.0,9.0,11.0,15.0,17.0,15.0,11.0,7.0,5.0,5.0,5.0,6.0,6.0,7.0,9.0,12.0,14.0,Cleveland,OH,Ohio,41.4764,-81.6805,1680247,1839.6,POINT (-81.6805 41.4764)
395059,36,San Jose,msa,CA,11.0,10.0,10.0,10.0,13.0,15.0,17.0,19.0,22.0,29.0,29.0,25.0,17.0,15.0,15.0,17.0,21.0,23.0,25.0,24.0,25.0,29.0,27.0,22.0,12.0,12.0,15.0,18.0,18.0,17.0,15.0,15.0,16.0,19.0,19.0,17.0,13.0,11.0,11.0,12.0,12.0,13.0,13.0,14.0,14.0,18.0,17.0,16.0,10.0,10.0,12.0,15.0,19.0,23.0,24.0,26.0,25.0,29.0,30.0,27.0,21.0,16.0,16.0,14.0,12.0,10.0,10.0,11.0,13.0,15.0,14.0,San Jose,CA,California,37.3012,-121.848,1771413,2172.6,POINT (-121.848 37.3012)
394902,37,Nashville,msa,TN,21.0,14.0,13.0,14.0,16.0,19.0,21.0,23.0,26.0,31.0,37.0,36.0,31.0,22.0,18.0,18.0,20.0,23.0,27.0,31.0,37.0,44.0,46.0,43.0,37.0,32.0,31.0,30.0,31.0,32.0,33.0,31.0,30.0,30.0,32.0,24.0,14.0,4.0,4.0,4.0,4.0,5.0,5.0,5.0,5.0,5.0,5.0,5.0,4.0,4.0,4.0,4.0,6.0,9.0,13.0,17.0,22.0,29.0,35.0,33.0,24.0,15.0,11.0,11.0,12.0,14.0,17.0,19.0,23.0,27.0,34.0,Nashville,TN,Tennessee,36.1715,-86.7842,1177657,555.4,POINT (-86.7842 36.1715)
395194,38,Virginia Beach,msa,VA,69.0,52.0,41.0,41.0,43.0,46.0,51.0,57.0,60.0,67.0,71.0,72.0,59.0,47.0,37.0,37.0,39.0,41.0,43.0,45.0,52.0,65.0,74.0,81.0,69.0,68.0,60.0,59.0,48.0,39.0,33.0,28.0,27.0,24.0,24.0,21.0,18.0,17.0,16.0,17.0,16.0,18.0,20.0,21.0,21.0,21.0,21.0,18.0,15.0,13.0,13.0,14.0,17.0,19.0,21.0,21.0,23.0,25.0,28.0,26.0,23.0,18.0,17.0,16.0,17.0,18.0,19.0,21.0,24.0,28.0,32.0,Virginia Beach,VA,Virginia,36.7335,-76.0435,1443020,722.4,POINT (-76.0435 36.7335)
395005,39,Providence,msa,RI,33.0,20.0,17.0,17.0,20.0,24.0,32.0,35.0,40.0,43.0,51.0,51.0,43.0,30.0,22.0,21.0,24.0,27.0,28.0,29.0,31.0,37.0,42.0,40.0,31.0,21.0,18.0,16.0,13.0,11.0,10.0,10.0,12.0,15.0,20.0,18.0,14.0,7.0,8.0,8.0,9.0,8.0,9.0,10.0,11.0,11.0,10.0,9.0,8.0,7.0,7.0,8.0,9.0,11.0,12.0,12.0,13.0,15.0,18.0,16.0,12.0,8.0,7.0,7.0,8.0,9.0,9.0,9.0,11.0,15.0,16.0,Providence,RI,Rhode Island,41.823,-71.4187,1290271,3979.7,POINT (-71.4187 41.823)
394714,40,Jacksonville,msa,FL,35.0,31.0,31.0,32.0,33.0,35.0,36.0,38.0,40.0,43.0,48.0,47.0,43.0,37.0,33.0,29.0,26.0,25.0,28.0,28.0,30.0,32.0,35.0,32.0,25.0,21.0,22.0,24.0,21.0,17.0,15.0,13.0,11.0,10.0,9.0,7.0,5.0,4.0,4.0,5.0,5.0,6.0,6.0,6.0,7.0,7.0,7.0,6.0,5.0,5.0,5.0,6.0,7.0,11.0,14.0,18.0,24.0,32.0,,43.0,40.0,34.0,31.0,29.0,29.0,29.0,30.0,31.0,35.0,38.0,42.0,Jacksonville,FL,Florida,30.3322,-81.6749,1288298,491.0,POINT (-81.6749 30.3322)
394862,41,Milwaukee,msa,WI,,,,,,,,,,,,,58.0,39.0,29.0,33.0,32.0,33.0,36.0,40.0,42.0,51.0,53.0,55.0,41.0,35.0,30.0,30.0,29.0,29.0,30.0,31.0,35.0,37.0,38.0,32.0,26.0,18.0,16.0,18.0,21.0,25.0,28.0,30.0,31.0,32.0,33.0,28.0,23.0,16.0,15.0,15.0,19.0,23.0,28.0,29.0,29.0,30.0,30.0,28.0,22.0,14.0,10.0,9.0,12.0,14.0,16.0,18.0,24.0,28.0,31.0,Milwaukee,WI,Wisconsin,43.0642,-87.9675,1290940,2301.6,POINT (-87.9675 43.0642)
394935,42,Oklahoma City,msa,OK,69.0,47.0,25.0,23.0,21.0,22.0,26.0,31.0,35.0,42.0,47.0,51.0,42.0,29.0,18.0,15.0,16.0,18.0,21.0,23.0,24.0,29.0,30.0,28.0,20.0,15.0,12.0,12.0,10.0,10.0,9.0,9.0,9.0,10.0,10.0,9.0,6.0,4.0,4.0,4.0,4.0,5.0,6.0,6.0,6.0,6.0,6.0,6.0,5.0,4.0,4.0,4.0,5.0,6.0,8.0,10.0,12.0,15.0,18.0,17.0,13.0,9.0,8.0,7.0,8.0,10.0,12.0,14.0,17.0,22.0,27.0,Oklahoma City,OK,Oklahoma,35.4676,-97.5136,998806,433.6,POINT (-97.5136 35.4676)
395012,43,Raleigh,msa,NC,9.0,7.0,7.0,7.0,9.0,10.0,12.0,12.0,13.0,15.0,17.0,16.0,13.0,9.0,8.0,9.0,11.0,11.0,12.0,13.0,15.0,18.0,18.0,15.0,9.0,7.0,7.0,7.0,6.0,5.0,5.0,5.0,5.0,5.0,5.0,5.0,4.0,4.0,4.0,4.0,4.0,4.0,4.0,5.0,5.0,5.0,5.0,4.0,4.0,4.0,4.0,5.0,6.0,8.0,11.0,,,,,26.0,16.0,9.0,7.0,6.0,7.0,8.0,10.0,12.0,15.0,21.0,22.0,Raleigh,NC,North Carolina,35.8324,-78.6429,1163152,1210.0,POINT (-78.6429 35.8324)
394849,44,Memphis,msa,TN,49.0,35.0,26.0,23.0,25.0,26.0,31.0,31.0,36.0,41.0,47.0,43.0,35.0,22.0,16.0,10.0,12.0,14.0,17.0,17.0,18.0,20.0,22.0,20.0,14.0,10.0,8.0,7.0,7.0,6.0,6.0,6.0,6.0,6.0,6.0,10.0,13.0,17.0,14.0,12.0,12.0,14.0,16.0,19.0,18.0,18.0,15.0,14.0,11.0,9.0,9.0,10.0,13.0,16.0,18.0,19.0,21.0,25.0,28.0,28.0,25.0,22.0,20.0,20.0,21.0,23.0,25.0,26.0,29.0,32.0,35.0,Memphis,TN,Tennessee,35.1087,-89.9663,1037998,824.8,POINT (-89.9663 35.1087)
395022,45,Richmond,msa,VA,25.0,10.0,11.0,12.0,15.0,17.0,19.0,21.0,25.0,31.0,33.0,28.0,18.0,12.0,9.0,9.0,11.0,13.0,15.0,17.0,21.0,32.0,33.0,28.0,14.0,8.0,8.0,8.0,7.0,6.0,5.0,5.0,5.0,6.0,6.0,6.0,5.0,5.0,5.0,5.0,5.0,6.0,6.0,6.0,6.0,6.0,6.0,5.0,5.0,5.0,5.0,5.0,5.0,6.0,7.0,7.0,8.0,,12.0,10.0,7.0,5.0,5.0,5.0,5.0,5.0,6.0,6.0,8.0,10.0,11.0,Richmond,VA,Virginia,37.5295,-77.4756,1073223,1463.7,POINT (-77.4756 37.5295)
394807,46,Louisville,msa,KY,25.0,14.0,11.0,12.0,13.0,15.0,16.0,17.0,21.0,29.0,35.0,36.0,26.0,17.0,13.0,13.0,14.0,15.0,16.0,18.0,19.0,27.0,33.0,31.0,20.0,12.0,10.0,10.0,7.0,6.0,6.0,6.0,6.0,8.0,14.0,14.0,12.0,5.0,4.0,4.0,4.0,5.0,5.0,6.0,6.0,8.0,7.0,7.0,5.0,5.0,5.0,5.0,6.0,6.0,7.0,8.0,10.0,14.0,16.0,14.0,9.0,6.0,5.0,5.0,5.0,6.0,7.0,8.0,11.0,14.0,18.0,Louisville,KY,Kentucky,38.1663,-85.6485,963812,923.1,POINT (-85.6485 38.1663)
394910,47,New Orleans,msa,LA,43.0,33.0,28.0,29.0,30.0,32.0,33.0,34.0,34.0,38.0,43.0,42.0,38.0,30.0,26.0,21.0,22.0,26.0,31.0,33.0,33.0,35.0,41.0,39.0,32.0,24.0,20.0,20.0,18.0,16.0,15.0,12.0,12.0,13.0,12.0,11.0,8.0,7.0,7.0,6.0,7.0,8.0,13.0,13.0,13.0,9.0,9.0,8.0,7.0,6.0,7.0,8.0,11.0,14.0,17.0,21.0,25.0,32.0,39.0,37.0,32.0,24.0,21.0,25.0,28.0,31.0,30.0,32.0,36.0,41.0,48.0,New Orleans,LA,Louisiana,30.0687,-89.9288,932759,866.5,POINT (-89.9288 30.0687)
395053,48,Salt Lake City,msa,UT,17.0,8.0,9.0,9.0,11.0,11.0,13.0,16.0,20.0,25.0,29.0,27.0,19.0,11.0,9.0,10.0,12.0,15.0,16.0,16.0,18.0,20.0,19.0,13.0,8.0,8.0,9.0,11.0,10.0,9.0,6.0,6.0,6.0,6.0,8.0,8.0,7.0,5.0,5.0,5.0,5.0,6.0,6.0,7.0,7.0,7.0,6.0,6.0,5.0,5.0,5.0,6.0,10.0,13.0,17.0,20.0,24.0,31.0,38.0,35.0,25.0,13.0,9.0,8.0,10.0,12.0,15.0,18.0,22.0,27.0,31.0,Salt Lake City,UT,Utah,40.7776,-111.9311,1173879,700.8,POINT (-111.9311 40.7776)
394669,49,Hartford,msa,CT,47.0,23.0,18.0,17.0,21.0,27.0,31.0,34.0,37.0,46.0,57.0,54.0,40.0,23.0,17.0,18.0,20.0,25.0,28.0,30.0,35.0,44.0,52.0,47.0,33.0,19.0,15.0,14.0,10.0,8.0,8.0,8.0,9.0,11.0,16.0,15.0,12.0,5.0,5.0,5.0,6.0,7.0,7.0,7.0,7.0,8.0,7.0,7.0,5.0,5.0,5.0,5.0,6.0,7.0,7.0,7.0,7.0,9.0,9.0,9.0,6.0,5.0,5.0,5.0,6.0,6.0,6.0,6.0,7.0,8.0,8.0,Hartford,CT,Connecticut,41.7661,-72.6834,974684,2689.4,POINT (-72.6834 41.7661)
394425,50,Buffalo,msa,NY,32.0,18.0,14.0,13.0,15.0,17.0,21.0,24.0,29.0,33.0,38.0,37.0,29.0,19.0,14.0,13.0,14.0,16.0,19.0,20.0,25.0,33.0,38.0,33.0,23.0,20.0,18.0,17.0,10.0,10.0,10.0,11.0,12.0,13.0,13.0,12.0,10.0,9.0,9.0,9.0,9.0,10.0,10.0,11.0,11.0,12.0,12.0,11.0,10.0,9.0,9.0,9.0,10.0,11.0,11.0,11.0,12.0,16.0,19.0,18.0,14.0,10.0,9.0,9.0,10.0,10.0,10.0,11.0,12.0,15.0,17.0,Buffalo,NY,New York,42.9018,-78.8487,944589,2645.7,POINT (-78.8487 42.9018)
394388,51,Birmingham,msa,AL,27.0,16.0,13.0,14.0,16.0,19.0,21.0,25.0,26.0,30.0,33.0,30.0,22.0,14.0,12.0,13.0,14.0,15.0,17.0,19.0,21.0,24.0,24.0,21.0,15.0,12.0,10.0,10.0,8.0,8.0,7.0,8.0,8.0,9.0,10.0,10.0,7.0,5.0,4.0,4.0,5.0,5.0,6.0,6.0,6.0,6.0,6.0,7.0,6.0,6.0,5.0,5.0,6.0,8.0,10.0,11.0,14.0,18.0,22.0,20.0,15.0,10.0,9.0,8.0,9.0,10.0,13.0,15.0,16.0,20.0,26.0,Birmingham,AL,Alabama,33.5279,-86.7971,782111,526.4,POINT (-86.7971 33.5279)
395031,52,Rochester,msa,NY,34.0,18.0,16.0,15.0,17.0,20.0,24.0,26.0,29.0,36.0,42.0,39.0,28.0,17.0,13.0,13.0,14.0,16.0,18.0,21.0,25.0,32.0,34.0,29.0,19.0,15.0,13.0,12.0,9.0,8.0,9.0,9.0,10.0,11.0,11.0,10.0,8.0,7.0,7.0,7.0,7.0,8.0,8.0,8.0,8.0,8.0,8.0,8.0,7.0,7.0,7.0,7.0,8.0,8.0,8.0,8.0,8.0,9.0,9.0,9.0,8.0,7.0,7.0,7.0,8.0,8.0,8.0,8.0,9.0,9.0,9.0,Rochester,NY,New York,43.168,-77.6162,699921,2278.0,POINT (-77.6162 43.168)
394640,53,Grand Rapids,msa,MI,16.0,8.0,7.0,7.0,8.0,9.0,13.0,15.0,16.0,17.0,18.0,19.0,15.0,12.0,8.0,7.0,8.0,9.0,11.0,13.0,16.0,21.0,28.0,27.0,19.0,12.0,10.0,14.0,10.0,10.0,6.0,6.0,6.0,7.0,7.0,6.0,5.0,5.0,5.0,6.0,6.0,6.0,6.0,6.0,7.0,7.0,7.0,6.0,6.0,6.0,6.0,6.0,6.0,7.0,7.0,8.0,9.0,12.0,13.0,11.0,8.0,6.0,6.0,6.0,6.0,7.0,7.0,7.0,8.0,11.0,11.0,Grand Rapids,MI,Michigan,42.9619,-85.6562,609023,1708.2,POINT (-85.6562 42.9619)
395167,54,Tucson,msa,AZ,27.0,21.0,18.0,16.0,16.0,16.0,16.0,16.0,18.0,21.0,26.0,25.0,25.0,19.0,18.0,15.0,16.0,15.0,15.0,14.0,14.0,18.0,19.0,17.0,12.0,10.0,11.0,11.0,9.0,7.0,5.0,5.0,6.0,7.0,8.0,7.0,6.0,4.0,4.0,4.0,5.0,5.0,6.0,6.0,7.0,8.0,8.0,7.0,5.0,5.0,5.0,5.0,7.0,10.0,13.0,16.0,20.0,27.0,32.0,30.0,23.0,16.0,12.0,10.0,9.0,10.0,10.0,11.0,14.0,20.0,25.0,Tucson,AZ,Arizona,32.1541,-110.8787,878320,863.9,POINT (-110.8787 32.1541)
395169,56,Tulsa,msa,OK,56.0,40.0,32.0,30.0,30.0,33.0,37.0,40.0,48.0,57.0,61.0,60.0,48.0,37.0,30.0,29.0,31.0,28.0,31.0,31.0,32.0,35.0,38.0,37.0,28.0,22.0,18.0,16.0,13.0,11.0,11.0,10.0,10.0,12.0,14.0,20.0,16.0,13.0,5.0,5.0,5.0,6.0,7.0,8.0,8.0,9.0,8.0,8.0,6.0,5.0,5.0,5.0,6.0,8.0,9.0,11.0,14.0,17.0,20.0,17.0,15.0,11.0,9.0,9.0,10.0,11.0,13.0,14.0,17.0,21.0,27.0,Tulsa,OK,Oklahoma,36.1283,-95.9042,731743,804.2,POINT (-95.9042 36.1283)
394619,57,Fresno,msa,CA,16.0,14.0,13.0,11.0,13.0,14.0,16.0,16.0,20.0,24.0,27.0,26.0,21.0,18.0,16.0,17.0,19.0,18.0,17.0,20.0,25.0,29.0,31.0,25.0,18.0,20.0,21.0,23.0,16.0,12.0,9.0,8.0,9.0,10.0,10.0,9.0,8.0,7.0,8.0,8.0,8.0,9.0,13.0,13.0,12.0,9.0,8.0,8.0,7.0,7.0,7.0,7.0,9.0,13.0,16.0,17.0,20.0,23.0,27.0,24.0,19.0,11.0,9.0,8.0,8.0,10.0,11.0,13.0,14.0,18.0,20.0,Fresno,CA,California,36.783,-119.7939,725276,1805.3,POINT (-119.7939 36.783)
395238,58,Worcester,msa,MA,23.0,13.0,10.0,9.0,12.0,14.0,16.0,18.0,22.0,30.0,34.0,31.0,22.0,14.0,9.0,9.0,11.0,14.0,14.0,15.0,17.0,22.0,24.0,21.0,15.0,9.0,8.0,8.0,7.0,7.0,7.0,7.0,8.0,10.0,10.0,9.0,7.0,6.0,6.0,6.0,7.0,7.0,8.0,8.0,9.0,10.0,9.0,9.0,7.0,6.0,6.0,9.0,9.0,10.0,9.0,9.0,10.0,12.0,13.0,12.0,9.0,8.0,7.0,7.0,7.0,7.0,8.0,8.0,9.0,11.0,12.0,Worcester,MA,Massachusetts,42.2705,-71.8079,486486,2110.2,POINT (-71.8079 42.2705)
394938,59,Omaha,msa,NE,20.0,17.0,12.0,12.0,13.0,16.0,20.0,21.0,24.0,36.0,48.0,50.0,37.0,23.0,18.0,15.0,15.0,15.0,16.0,25.0,32.0,40.0,43.0,40.0,28.0,17.0,11.0,12.0,12.0,12.0,15.0,13.0,12.0,7.0,12.0,11.0,10.0,4.0,4.0,4.0,5.0,5.0,6.0,6.0,6.0,6.0,6.0,5.0,4.0,4.0,4.0,4.0,5.0,6.0,6.0,7.0,10.0,13.0,13.0,10.0,6.0,4.0,4.0,4.0,5.0,6.0,7.0,9.0,11.0,16.0,17.0,Omaha,NE,Nebraska,41.2627,-96.0529,821345,1323.9,POINT (-96.0529 41.2627)
394415,60,Bridgeport,msa,CT,54.0,29.0,23.0,25.0,32.0,38.0,40.0,42.0,45.0,53.0,58.0,52.0,40.0,29.0,25.0,27.0,32.0,41.0,45.0,48.0,49.0,63.0,69.0,60.0,38.0,29.0,32.0,31.0,24.0,17.0,17.0,18.0,19.0,21.0,27.0,25.0,19.0,8.0,7.0,8.0,10.0,13.0,14.0,16.0,16.0,17.0,16.0,13.0,9.0,7.0,7.0,8.0,10.0,13.0,14.0,15.0,17.0,20.0,20.0,17.0,11.0,9.0,8.0,8.0,10.0,11.0,12.0,12.0,12.0,15.0,15.0,Bridgeport,CT,Connecticut,41.1918,-73.1954,908251,3568.4,POINT (-73.1954 41.1918)
394653,61,Greenville,msa,SC,18.0,13.0,12.0,12.0,13.0,16.0,18.0,21.0,26.0,33.0,35.0,31.0,22.0,17.0,14.0,15.0,16.0,18.0,20.0,23.0,25.0,29.0,31.0,30.0,21.0,15.0,13.0,14.0,13.0,12.0,10.0,9.0,10.0,11.0,12.0,10.0,7.0,4.0,3.0,3.0,4.0,4.0,4.0,5.0,5.0,5.0,5.0,5.0,4.0,4.0,4.0,4.0,5.0,7.0,8.0,9.0,11.0,17.0,21.0,20.0,15.0,11.0,9.0,8.0,8.0,8.0,10.0,12.0,15.0,19.0,21.0,Greenville,SC,South Carolina,34.8354,-82.3646,401443,917.9,POINT (-82.3646 34.8354)
394312,62,Albuquerque,msa,NM,33.0,21.0,15.0,14.0,17.0,20.0,25.0,29.0,33.0,38.0,43.0,39.0,29.0,17.0,14.0,14.0,15.0,16.0,17.0,18.0,21.0,25.0,26.0,21.0,13.0,8.0,8.0,8.0,7.0,6.0,5.0,5.0,6.0,6.0,7.0,6.0,5.0,4.0,4.0,4.0,4.0,4.0,5.0,5.0,5.0,5.0,5.0,4.0,4.0,4.0,4.0,4.0,5.0,6.0,8.0,10.0,11.0,13.0,15.0,13.0,9.0,5.0,4.0,4.0,5.0,7.0,8.0,9.0,11.0,15.0,17.0,Albuquerque,NM,New Mexico,35.1054,-106.6465,769986,1159.8,POINT (-106.6465 35.1054)
394357,63,Bakersfield,msa,CA,33.0,27.0,27.0,27.0,24.0,26.0,27.0,32.0,37.0,44.0,45.0,40.0,34.0,29.0,29.0,26.0,29.0,31.0,31.0,30.0,34.0,38.0,51.0,47.0,42.0,29.0,28.0,27.0,22.0,17.0,16.0,14.0,15.0,12.0,16.0,14.0,12.0,6.0,6.0,7.0,7.0,8.0,8.0,9.0,10.0,10.0,10.0,8.0,7.0,7.0,7.0,9.0,12.0,15.0,17.0,19.0,22.0,28.0,31.0,29.0,22.0,16.0,13.0,11.0,11.0,13.0,14.0,16.0,18.0,22.0,22.0,Bakersfield,CA,California,35.3529,-119.0359,571992,1038.8,POINT (-119.0359 35.3529)
394308,64,Albany,msa,NY,52.0,31.0,23.0,20.0,23.0,25.0,30.0,32.0,36.0,46.0,57.0,60.0,47.0,31.0,19.0,18.0,18.0,20.0,24.0,29.0,36.0,47.0,56.0,53.0,37.0,24.0,18.0,16.0,11.0,9.0,10.0,11.0,13.0,17.0,17.0,14.0,9.0,7.0,6.0,6.0,7.0,8.0,10.0,11.0,13.0,15.0,17.0,14.0,11.0,7.0,7.0,7.0,8.0,9.0,11.0,12.0,13.0,15.0,19.0,17.0,13.0,8.0,7.0,6.0,7.0,7.0,8.0,9.0,10.0,12.0,15.0,Albany,NY,New York,42.6664,-73.7987,590694,1798.3,POINT (-73.7987 42.6664)
394753,65,Knoxville,msa,TN,31.0,21.0,16.0,16.0,16.0,18.0,21.0,23.0,27.0,30.0,35.0,32.0,24.0,16.0,13.0,13.0,14.0,15.0,14.0,16.0,17.0,22.0,26.0,24.0,17.0,10.0,9.0,10.0,9.0,7.0,6.0,5.0,6.0,7.0,7.0,7.0,5.0,3.0,3.0,3.0,4.0,4.0,4.0,5.0,5.0,5.0,5.0,4.0,3.0,3.0,4.0,4.0,5.0,6.0,8.0,9.0,11.0,14.0,15.0,13.0,9.0,6.0,4.0,4.0,5.0,6.0,8.0,9.0,11.0,15.0,18.0,Knoxville,TN,Tennessee,35.9692,-83.9496,615829,750.3,POINT (-83.9496 35.9692)
394367,66,Baton Rouge,msa,LA,,,,,,,,,65.0,82.0,94.0,83.0,72.0,71.0,74.0,69.0,63.0,64.0,69.0,64.0,56.0,59.0,66.0,65.0,53.0,41.0,39.0,38.0,34.0,29.0,26.0,24.0,21.0,21.0,22.0,24.0,25.0,19.0,14.0,6.0,6.0,7.0,8.0,8.0,8.0,7.0,6.0,5.0,5.0,4.0,5.0,5.0,6.0,9.0,12.0,14.0,17.0,22.0,27.0,25.0,20.0,14.0,13.0,13.0,14.0,15.0,18.0,21.0,26.0,30.0,35.0,Baton Rouge,LA,Louisiana,30.442,-91.1311,635671,1001.4,POINT (-91.1311 30.442)
394843,67,McAllen,msa,TX,83.0,74.0,61.0,63.0,64.0,59.0,48.0,47.0,59.0,76.0,99.0,101.0,99.0,87.0,87.0,86.0,86.0,88.0,92.0,93.0,82.0,83.0,83.0,85.0,73.0,65.0,63.0,63.0,57.0,47.0,38.0,31.0,25.0,27.0,30.0,33.0,34.0,31.0,28.0,24.0,23.0,22.0,21.0,21.0,21.0,23.0,27.0,28.0,28.0,25.0,24.0,22.0,22.0,24.0,28.0,32.0,36.0,38.0,42.0,39.0,43.0,42.0,44.0,40.0,40.0,42.0,43.0,42.0,47.0,52.0,53.0,McAllen,TX,Texas,26.2252,-98.2467,797341,884.4,POINT (-98.2467 26.2252)
394908,68,New Haven,msa,CT,57.0,33.0,21.0,19.0,23.0,25.0,29.0,33.0,38.0,44.0,51.0,46.0,36.0,22.0,18.0,18.0,22.0,25.0,28.0,29.0,33.0,39.0,43.0,38.0,25.0,19.0,16.0,14.0,10.0,7.0,7.0,7.0,9.0,11.0,16.0,15.0,12.0,5.0,5.0,6.0,6.0,7.0,8.0,9.0,10.0,10.0,9.0,8.0,6.0,5.0,5.0,6.0,7.0,8.0,9.0,9.0,10.0,12.0,12.0,11.0,8.0,7.0,6.0,6.0,7.0,8.0,8.0,8.0,8.0,10.0,11.0,New Haven,CT,Connecticut,41.3113,-72.9246,565572,2804.1,POINT (-72.9246 41.3113)
394561,69,El Paso,msa,TX,,,,,,,,,,,,,,,,,,,,,,,,,,,,,,,,,,,,,15.0,14.0,15.0,12.0,11.0,7.0,7.0,7.0,8.0,9.0,9.0,8.0,7.0,7.0,7.0,7.0,8.0,9.0,9.0,10.0,11.0,15.0,21.0,20.0,17.0,10.0,10.0,12.0,13.0,14.0,15.0,17.0,21.0,26.0,31.0,El Paso,TX,Texas,31.8476,-106.43,865270,1011.4,POINT (-106.43 31.8476)
394318,70,Allentown,msa,PA,70.0,57.0,44.0,40.0,42.0,43.0,43.0,40.0,54.0,61.0,69.0,67.0,62.0,58.0,48.0,44.0,39.0,43.0,46.0,55.0,54.0,63.0,63.0,65.0,50.0,48.0,45.0,45.0,37.0,30.0,28.0,20.0,17.0,16.0,22.0,20.0,15.0,7.0,7.0,7.0,7.0,7.0,8.0,8.0,8.0,8.0,8.0,8.0,7.0,7.0,7.0,7.0,8.0,9.0,12.0,13.0,14.0,15.0,16.0,15.0,12.0,9.0,8.0,8.0,8.0,9.0,9.0,9.0,10.0,12.0,13.0,Allentown,PA,Pennsylvania,40.5961,-75.4756,627863,2754.2,POINT (-75.4756 40.5961)
394952,71,Oxnard,msa,CA,18.0,14.0,14.0,16.0,18.0,21.0,24.0,26.0,31.0,36.0,39.0,36.0,28.0,22.0,19.0,19.0,20.0,22.0,24.0,24.0,25.0,28.0,28.0,24.0,16.0,14.0,16.0,16.0,15.0,12.0,12.0,10.0,10.0,9.0,9.0,8.0,7.0,7.0,8.0,8.0,8.0,8.0,9.0,9.0,10.0,10.0,9.0,8.0,8.0,8.0,8.0,9.0,12.0,15.0,18.0,21.0,23.0,26.0,29.0,24.0,18.0,11.0,10.0,9.0,10.0,10.0,11.0,12.0,13.0,16.0,16.0,Oxnard,CA,California,34.1964,-119.1815,369962,2944.1,POINT (-119.1815 34.1964)
394486,72,Columbia,msa,SC,73.0,55.0,37.0,33.0,28.0,28.0,33.0,40.0,61.0,78.0,90.0,69.0,54.0,37.0,38.0,31.0,31.0,33.0,38.0,49.0,56.0,60.0,59.0,48.0,45.0,45.0,46.0,38.0,27.0,23.0,22.0,18.0,17.0,16.0,17.0,14.0,12.0,10.0,8.0,5.0,5.0,6.0,6.0,8.0,9.0,11.0,11.0,9.0,6.0,5.0,6.0,6.0,8.0,8.0,15.0,15.0,16.0,15.0,18.0,19.0,14.0,11.0,16.0,14.0,14.0,8.0,10.0,12.0,14.0,17.0,19.0,Columbia,SC,South Carolina,34.0378,-80.9036,604065,383.1,POINT (-80.9036 34.0378)
753906,73,North Port,msa,FL,49.0,47.0,48.0,48.0,46.0,44.0,42.0,40.0,40.0,42.0,47.0,47.0,50.0,51.0,57.0,58.0,55.0,52.0,46.0,43.0,39.0,39.0,39.0,36.0,34.0,32.0,39.0,41.0,37.0,26.0,20.0,17.0,16.0,15.0,15.0,13.0,9.0,6.0,5.0,5.0,5.0,5.0,5.0,5.0,5.0,6.0,5.0,5.0,5.0,5.0,5.0,6.0,9.0,13.0,18.0,22.0,22.0,24.0,23.0,23.0,20.0,20.0,22.0,24.0,25.0,26.0,27.0,25.0,27.0,31.0,37.0,North Port,FL,Florida,27.0576,-82.1977,76975,299.1,POINT (-82.1977 27.0576)
845158,74,Dayton,msa,OH,28.0,18.0,13.0,12.0,13.0,15.0,18.0,20.0,25.0,32.0,39.0,39.0,31.0,18.0,10.0,8.0,9.0,11.0,12.0,12.0,14.0,20.0,23.0,20.0,12.0,7.0,6.0,5.0,4.0,4.0,4.0,5.0,5.0,6.0,6.0,5.0,4.0,3.0,3.0,3.0,4.0,4.0,5.0,5.0,6.0,6.0,6.0,5.0,4.0,3.0,3.0,4.0,5.0,5.0,7.0,7.0,9.0,11.0,13.0,11.0,8.0,5.0,4.0,4.0,4.0,4.0,5.0,6.0,8.0,11.0,13.0,Dayton,OH,Ohio,39.7805,-84.2003,668825,950.0,POINT (-84.2003 39.7805)
394457,75,Charleston,msa,SC,26.0,19.0,18.0,18.0,19.0,23.0,26.0,29.0,31.0,35.0,41.0,39.0,32.0,22.0,22.0,24.0,26.0,27.0,30.0,31.0,32.0,34.0,38.0,35.0,27.0,20.0,19.0,20.0,19.0,17.0,15.0,13.0,12.0,13.0,12.0,10.0,6.0,4.0,4.0,4.0,4.0,5.0,6.0,6.0,6.0,6.0,5.0,5.0,4.0,4.0,4.0,5.0,7.0,9.0,12.0,13.0,16.0,20.0,24.0,22.0,17.0,10.0,8.0,8.0,8.0,9.0,10.0,12.0,16.0,20.0,24.0,Charleston,SC,South Carolina,32.8168,-79.9687,706884,503.3,POINT (-79.9687 32.8168)
394648,76,Greensboro,msa,NC,55.0,47.0,37.0,35.0,33.0,28.0,23.0,19.0,20.0,24.0,31.0,30.0,22.0,13.0,10.0,10.0,10.0,10.0,11.0,12.0,13.0,17.0,20.0,19.0,12.0,10.0,9.0,9.0,7.0,5.0,5.0,6.0,6.0,6.0,6.0,5.0,4.0,4.0,4.0,4.0,5.0,5.0,5.0,6.0,6.0,6.0,6.0,5.0,4.0,4.0,4.0,4.0,5.0,7.0,8.0,9.0,11.0,14.0,17.0,16.0,12.0,7.0,6.0,6.0,7.0,7.0,8.0,9.0,11.0,15.0,18.0,Greensboro,NC,North Carolina,36.0956,-79.8271,347130,873.2,POINT (-79.8271 36.0956)
395134,77,Stockton,msa,CA,14.0,12.0,12.0,12.0,14.0,15.0,17.0,19.0,23.0,30.0,35.0,33.0,25.0,17.0,15.0,15.0,16.0,18.0,19.0,21.0,21.0,28.0,30.0,27.0,18.0,12.0,12.0,12.0,10.0,8.0,7.0,7.0,7.0,8.0,8.0,7.0,7.0,7.0,7.0,8.0,8.0,8.0,9.0,10.0,11.0,11.0,10.0,9.0,7.0,7.0,8.0,11.0,14.0,19.0,23.0,28.0,30.0,33.0,37.0,35.0,28.0,17.0,12.0,10.0,10.0,11.0,12.0,14.0,17.0,20.0,22.0,Stockton,CA,California,37.9765,-121.3109,413637,1980.5,POINT (-121.3109 37.9765)
394440,78,Cape Coral,msa,FL,50.0,52.0,53.0,54.0,52.0,51.0,49.0,47.0,47.0,49.0,54.0,56.0,58.0,59.0,62.0,63.0,65.0,64.0,60.0,53.0,48.0,46.0,48.0,49.0,47.0,43.0,48.0,49.0,46.0,34.0,27.0,23.0,22.0,23.0,24.0,21.0,15.0,10.0,7.0,7.0,7.0,8.0,8.0,8.0,9.0,10.0,10.0,10.0,9.0,8.0,8.0,10.0,13.0,17.0,22.0,27.0,27.0,25.0,21.0,23.0,24.0,24.0,26.0,30.0,35.0,39.0,38.0,35.0,33.0,35.0,41.0,Cape Coral,FL,Florida,26.6443,-81.9957,654405,724.2,POINT (-81.9957 26.6443)
394484,80,Colorado Springs,msa,CO,9.0,7.0,7.0,8.0,10.0,13.0,16.0,19.0,19.0,24.0,25.0,23.0,15.0,8.0,7.0,7.0,9.0,12.0,15.0,18.0,19.0,18.0,17.0,15.0,12.0,9.0,9.0,11.0,12.0,12.0,19.0,21.0,23.0,20.0,19.0,14.0,8.0,4.0,4.0,4.0,5.0,5.0,6.0,6.0,6.0,6.0,5.0,5.0,4.0,4.0,5.0,6.0,8.0,13.0,18.0,22.0,24.0,30.0,37.0,35.0,25.0,12.0,8.0,8.0,9.0,13.0,17.0,21.0,26.0,34.0,41.0,Colorado Springs,CO,Colorado,38.8674,-104.7605,638194,917.5,POINT (-104.7605 38.8674)
394798,81,Little Rock,msa,AR,67.0,43.0,31.0,31.0,37.0,40.0,44.0,50.0,66.0,78.0,89.0,84.0,69.0,56.0,44.0,37.0,33.0,33.0,36.0,48.0,66.0,83.0,87.0,84.0,64.0,51.0,32.0,26.0,17.0,14.0,20.0,20.0,18.0,11.0,17.0,17.0,14.0,7.0,7.0,12.0,13.0,15.0,12.0,12.0,14.0,16.0,16.0,14.0,9.0,7.0,6.0,7.0,8.0,12.0,16.0,20.0,22.0,25.0,27.0,25.0,20.0,14.0,14.0,14.0,18.0,21.0,23.0,26.0,27.0,32.0,34.0,Little Rock,AR,Arkansas,34.7256,-92.3577,459409,649.4,POINT (-92.3577 34.7256)
394766,82,Lakeland,msa,FL,29.0,23.0,20.0,17.0,16.0,17.0,17.0,18.0,19.0,27.0,33.0,35.0,31.0,26.0,25.0,22.0,21.0,20.0,21.0,26.0,28.0,30.0,28.0,28.0,23.0,19.0,17.0,18.0,16.0,14.0,11.0,10.0,10.0,11.0,11.0,11.0,8.0,6.0,5.0,5.0,5.0,6.0,6.0,6.0,7.0,7.0,7.0,7.0,6.0,6.0,6.0,7.0,8.0,11.0,14.0,18.0,22.0,28.0,33.0,33.0,30.0,23.0,20.0,19.0,19.0,20.0,20.0,21.0,24.0,31.0,37.0,Lakeland,FL,Florida,28.0557,-81.9545,280346,663.9,POINT (-81.9545 28.0557)
394304,83,Akron,msa,OH,50.0,40.0,33.0,33.0,34.0,34.0,37.0,39.0,44.0,48.0,54.0,53.0,46.0,35.0,28.0,28.0,29.0,31.0,33.0,37.0,38.0,42.0,46.0,45.0,36.0,28.0,23.0,19.0,15.0,13.0,15.0,15.0,16.0,19.0,23.0,20.0,12.0,5.0,4.0,4.0,5.0,5.0,6.0,7.0,8.0,9.0,9.0,8.0,6.0,5.0,4.0,5.0,5.0,6.0,7.0,9.0,10.0,13.0,15.0,14.0,9.0,6.0,5.0,5.0,5.0,5.0,6.0,7.0,9.0,13.0,14.0,Akron,OH,Ohio,41.0798,-81.5219,541945,1186.2,POINT (-81.5219 41.0798)
394531,84,Des Moines,msa,IA,31.0,21.0,17.0,17.0,18.0,21.0,24.0,27.0,29.0,35.0,41.0,42.0,37.0,29.0,23.0,20.0,22.0,24.0,27.0,32.0,37.0,45.0,54.0,53.0,43.0,29.0,23.0,21.0,19.0,17.0,17.0,17.0,18.0,23.0,26.0,23.0,16.0,8.0,7.0,5.0,6.0,7.0,9.0,10.0,12.0,13.0,14.0,11.0,7.0,5.0,5.0,5.0,6.0,9.0,11.0,13.0,17.0,25.0,32.0,28.0,19.0,9.0,7.0,7.0,8.0,10.0,13.0,14.0,18.0,26.0,34.0,Des Moines,IA,Iowa,41.5725,-93.6105,548926,933.4,POINT (-93.6105 41.5725)
395115,85,Springfield,msa,MA,33.0,19.0,15.0,14.0,16.0,19.0,23.0,26.0,30.0,33.0,42.0,39.0,32.0,18.0,13.0,12.0,14.0,16.0,17.0,19.0,20.0,30.0,38.0,36.0,24.0,14.0,10.0,9.0,8.0,7.0,8.0,8.0,9.0,10.0,10.0,9.0,8.0,7.0,7.0,7.0,8.0,8.0,8.0,9.0,10.0,10.0,10.0,9.0,8.0,7.0,7.0,9.0,11.0,12.0,11.0,11.0,11.0,14.0,16.0,16.0,13.0,10.0,8.0,7.0,8.0,8.0,9.0,10.0,11.0,12.0,13.0,Springfield,MA,Massachusetts,42.1155,-72.5395,437752,1881.5,POINT (-72.5395 42.1155)
845159,86,Poughkeepsie,msa,NY,,,,,,,,,,,,,,,,,,,,,,,,,,,,,,,,,,,,,23.0,30.0,31.0,33.0,35.0,39.0,46.0,47.0,54.0,61.0,73.0,83.0,75.0,65.0,45.0,40.0,37.0,41.0,47.0,56.0,59.0,61.0,47.0,37.0,27.0,28.0,30.0,30.0,32.0,33.0,35.0,36.0,39.0,45.0,51.0,Poughkeepsie,NY,New York,41.695,-73.9211,314159,2380.4,POINT (-73.9211 41.695)
394931,87,Ogden,msa,UT,15.0,9.0,9.0,10.0,11.0,11.0,12.0,16.0,21.0,25.0,26.0,24.0,18.0,14.0,11.0,11.0,11.0,12.0,14.0,17.0,20.0,25.0,24.0,21.0,12.0,10.0,8.0,10.0,8.0,7.0,5.0,5.0,5.0,5.0,7.0,8.0,7.0,5.0,5.0,5.0,6.0,6.0,6.0,7.0,7.0,7.0,6.0,6.0,5.0,5.0,5.0,6.0,10.0,14.0,21.0,,,,45.0,42.0,31.0,17.0,13.0,12.0,13.0,15.0,17.0,19.0,25.0,31.0,36.0,Ogden,UT,Utah,41.2279,-111.9682,622918,1215.9,POINT (-111.9682 41.2279)
394816,88,Madison,msa,WI,33.0,26.0,26.0,27.0,29.0,33.0,37.0,42.0,49.0,56.0,60.0,54.0,40.0,26.0,22.0,23.0,27.0,30.0,34.0,38.0,45.0,53.0,60.0,53.0,39.0,28.0,26.0,23.0,20.0,19.0,23.0,24.0,27.0,31.0,27.0,21.0,10.0,9.0,7.0,7.0,9.0,10.0,14.0,16.0,22.0,26.0,22.0,15.0,7.0,6.0,6.0,6.0,7.0,10.0,12.0,13.0,18.0,25.0,23.0,16.0,7.0,6.0,6.0,7.0,7.0,7.0,8.0,11.0,16.0,22.0,22.0,Madison,WI,Wisconsin,43.0822,-89.393,451652,1268.3,POINT (-89.393 43.0822)
394528,90,Deltona,msa,FL,52.0,35.0,25.0,25.0,26.0,35.0,39.0,44.0,45.0,51.0,63.0,58.0,54.0,44.0,49.0,48.0,48.0,45.0,48.0,48.0,44.0,41.0,41.0,40.0,33.0,29.0,30.0,34.0,31.0,24.0,18.0,16.0,15.0,15.0,16.0,16.0,13.0,10.0,8.0,8.0,7.0,8.0,9.0,9.0,11.0,12.0,11.0,10.0,8.0,7.0,7.0,7.0,10.0,13.0,17.0,21.0,24.0,29.0,33.0,33.0,29.0,25.0,23.0,21.0,22.0,22.0,23.0,25.0,29.0,33.0,39.0,Deltona,FL,Florida,28.905,-81.2137,221137,976.3,POINT (-81.2137 28.905)
395143,91,Syracuse,msa,NY,75.0,58.0,42.0,36.0,35.0,38.0,45.0,50.0,53.0,57.0,66.0,70.0,60.0,45.0,30.0,25.0,23.0,25.0,29.0,33.0,36.0,43.0,52.0,47.0,34.0,25.0,21.0,18.0,10.0,8.0,9.0,8.0,10.0,11.0,14.0,12.0,9.0,6.0,6.0,6.0,6.0,7.0,8.0,8.0,9.0,10.0,10.0,9.0,7.0,6.0,6.0,6.0,6.0,7.0,7.0,8.0,9.0,10.0,11.0,9.0,7.0,6.0,6.0,6.0,6.0,6.0,6.0,7.0,8.0,9.0,9.0,Syracuse,NY,New York,43.0407,-76.1437,410732,2251.6,POINT (-76.1437 43.0407)
395006,92,Provo,msa,UT,20.0,12.0,12.0,12.0,13.0,13.0,16.0,20.0,24.0,28.0,30.0,26.0,20.0,14.0,14.0,15.0,17.0,16.0,19.0,21.0,28.0,30.0,29.0,21.0,12.0,10.0,10.0,12.0,10.0,8.0,6.0,6.0,6.0,6.0,8.0,8.0,7.0,5.0,6.0,6.0,6.0,7.0,7.0,7.0,7.0,7.0,7.0,6.0,5.0,5.0,6.0,8.0,12.0,18.0,,,,39.0,45.0,41.0,32.0,20.0,15.0,14.0,16.0,18.0,21.0,22.0,27.0,32.0,35.0,Provo,UT,Utah,40.2457,-111.6457,619218,1059.2,POINT (-111.6457 40.2457)
395160,93,Toledo,msa,OH,43.0,25.0,17.0,13.0,14.0,17.0,21.0,24.0,29.0,39.0,47.0,48.0,35.0,23.0,13.0,11.0,11.0,13.0,17.0,20.0,22.0,26.0,35.0,33.0,26.0,14.0,12.0,10.0,8.0,7.0,7.0,7.0,7.0,9.0,10.0,9.0,6.0,5.0,4.0,4.0,4.0,5.0,6.0,7.0,7.0,8.0,8.0,8.0,6.0,5.0,4.0,4.0,5.0,6.0,6.0,7.0,9.0,11.0,14.0,13.0,10.0,5.0,4.0,4.0,5.0,5.0,6.0,6.0,8.0,10.0,13.0,Toledo,OH,Ohio,41.6638,-83.5827,493302,1295.0,POINT (-83.5827 41.6638)
395224,94,Wichita,msa,KS,41.0,29.0,21.0,19.0,19.0,21.0,23.0,24.0,26.0,32.0,39.0,43.0,36.0,24.0,16.0,15.0,15.0,14.0,16.0,19.0,20.0,23.0,24.0,23.0,17.0,12.0,9.0,8.0,7.0,6.0,7.0,8.0,9.0,11.0,17.0,16.0,12.0,4.0,4.0,4.0,4.0,5.0,6.0,7.0,7.0,7.0,7.0,5.0,4.0,4.0,4.0,4.0,4.0,5.0,6.0,7.0,8.0,10.0,11.0,9.0,7.0,5.0,5.0,5.0,5.0,6.0,8.0,9.0,12.0,14.0,15.0,Wichita,KS,Kansas,37.6895,-97.3443,509003,938.6,POINT (-97.3443 37.6895)
394549,95,Durham,msa,NC,13.0,7.0,7.0,7.0,8.0,10.0,12.0,14.0,16.0,19.0,21.0,19.0,13.0,8.0,7.0,8.0,10.0,11.0,11.0,13.0,16.0,21.0,22.0,18.0,11.0,7.0,7.0,7.0,7.0,6.0,6.0,5.0,6.0,6.0,6.0,5.0,4.0,4.0,4.0,4.0,4.0,5.0,5.0,5.0,5.0,5.0,6.0,6.0,5.0,4.0,4.0,5.0,6.0,8.0,11.0,13.0,,,,22.0,13.0,6.0,5.0,6.0,6.0,7.0,8.0,10.0,14.0,20.0,22.0,Durham,NC,North Carolina,35.9792,-78.9022,399616,950.8,POINT (-78.9022 35.9792)
394352,96,Augusta,msa,GA,,,,,,,,33.0,31.0,53.0,68.0,82.0,66.0,52.0,45.0,43.0,36.0,29.0,28.0,30.0,29.0,32.0,35.0,35.0,28.0,21.0,20.0,16.0,13.0,11.0,10.0,9.0,9.0,10.0,9.0,8.0,5.0,4.0,4.0,4.0,5.0,6.0,6.0,6.0,7.0,7.0,7.0,6.0,6.0,5.0,5.0,5.0,6.0,8.0,9.0,10.0,11.0,14.0,17.0,17.0,13.0,9.0,9.0,9.0,10.0,11.0,14.0,16.0,20.0,21.0,23.0,Augusta,GA,Georgia,33.3645,-82.0708,437257,257.5,POINT (-82.0708 33.3645)
394957,97,Palm Bay,msa,FL,30.0,25.0,24.0,24.0,26.0,27.0,29.0,31.0,35.0,41.0,47.0,46.0,41.0,33.0,31.0,31.0,30.0,28.0,28.0,29.0,30.0,29.0,33.0,34.0,31.0,26.0,26.0,29.0,27.0,23.0,23.0,18.0,16.0,10.0,11.0,10.0,8.0,6.0,5.0,5.0,5.0,6.0,7.0,7.0,7.0,7.0,7.0,6.0,5.0,5.0,5.0,6.0,7.0,10.0,14.0,18.0,21.0,26.0,29.0,28.0,24.0,19.0,17.0,16.0,15.0,17.0,18.0,21.0,23.0,29.0,35.0,Palm Bay,FL,Florida,27.9631,-80.6593,534348,542.9,POINT (-80.6593 27.9631)
394711,98,Jackson,msa,MS,49.0,38.0,33.0,30.0,29.0,31.0,33.0,36.0,41.0,51.0,62.0,58.0,45.0,30.0,25.0,26.0,26.0,30.0,29.0,31.0,34.0,40.0,44.0,39.0,32.0,25.0,22.0,21.0,18.0,17.0,14.0,12.0,10.0,11.0,10.0,10.0,7.0,6.0,4.0,4.0,4.0,5.0,6.0,7.0,6.0,6.0,6.0,5.0,5.0,4.0,4.0,5.0,6.0,7.0,8.0,9.0,11.0,16.0,18.0,17.0,12.0,9.0,9.0,9.0,10.0,11.0,14.0,16.0,18.0,24.0,29.0,Jackson,MS,Mississippi,32.3157,-90.2125,335171,529.9,POINT (-90.2125 32.3157)
394666,99,Harrisburg,msa,PA,45.0,28.0,15.0,14.0,15.0,17.0,21.0,24.0,25.0,28.0,32.0,31.0,24.0,16.0,12.0,11.0,13.0,13.0,14.0,15.0,17.0,20.0,23.0,21.0,16.0,15.0,13.0,13.0,8.0,6.0,,13.0,13.0,7.0,7.0,7.0,5.0,4.0,4.0,5.0,5.0,6.0,6.0,7.0,7.0,7.0,6.0,6.0,5.0,5.0,5.0,5.0,5.0,6.0,6.0,6.0,7.0,8.0,9.0,8.0,7.0,5.0,5.0,5.0,5.0,5.0,6.0,7.0,7.0,9.0,9.0,Harrisburg,PA,Pennsylvania,40.2752,-76.8843,498329,2380.4,POINT (-76.8843 40.2752)
395113,100,Spokane,msa,WA,43.0,29.0,21.0,22.0,25.0,27.0,29.0,30.0,35.0,38.0,42.0,38.0,31.0,22.0,18.0,19.0,22.0,22.0,20.0,18.0,19.0,26.0,29.0,22.0,12.0,6.0,6.0,6.0,6.0,6.0,6.0,7.0,7.0,8.0,13.0,12.0,10.0,5.0,5.0,5.0,5.0,6.0,6.0,7.0,8.0,8.0,7.0,6.0,5.0,5.0,5.0,6.0,8.0,12.0,16.0,21.0,25.0,32.0,39.0,34.0,23.0,9.0,6.0,7.0,10.0,13.0,16.0,19.0,22.0,30.0,36.0,Spokane,WA,Washington,47.6671,-117.433,456219,1279.8,POINT (-117.433 47.6671)
395075,101,Scranton,msa,PA,82.0,68.0,51.0,47.0,51.0,46.0,59.0,58.0,80.0,86.0,96.0,93.0,86.0,67.0,49.0,41.0,46.0,59.0,58.0,69.0,73.0,87.0,77.0,67.0,57.0,70.0,68.0,59.0,33.0,25.0,19.0,20.0,24.0,28.0,26.0,17.0,11.0,11.0,9.0,11.0,14.0,19.0,22.0,27.0,30.0,33.0,27.0,21.0,14.0,11.0,9.0,9.0,10.0,14.0,17.0,19.0,19.0,23.0,30.0,30.0,25.0,18.0,15.0,14.0,13.0,13.0,13.0,14.0,17.0,23.0,28.0,Scranton,PA,Pennsylvania,41.4044,-75.6649,366334,1161.3,POINT (-75.6649 41.4044)
394460,102,Chattanooga,msa,TN,30.0,18.0,15.0,13.0,14.0,15.0,20.0,22.0,24.0,29.0,34.0,35.0,27.0,19.0,15.0,15.0,15.0,17.0,20.0,22.0,24.0,29.0,34.0,33.0,24.0,17.0,12.0,11.0,10.0,8.0,8.0,7.0,7.0,8.0,9.0,8.0,6.0,4.0,4.0,4.0,4.0,4.0,5.0,5.0,6.0,6.0,5.0,5.0,4.0,4.0,5.0,5.0,7.0,8.0,11.0,12.0,15.0,21.0,22.0,20.0,14.0,10.0,8.0,8.0,9.0,10.0,11.0,12.0,15.0,20.0,24.0,Chattanooga,TN,Tennessee,35.066,-85.2481,406849,491.7,POINT (-85.2481 35.066)
394871,103,Modesto,msa,CA,17.0,12.0,12.0,13.0,14.0,16.0,21.0,24.0,27.0,30.0,35.0,33.0,26.0,17.0,14.0,13.0,13.0,14.0,14.0,15.0,17.0,19.0,19.0,16.0,12.0,11.0,12.0,12.0,10.0,8.0,7.0,7.0,7.0,8.0,8.0,7.0,6.0,6.0,7.0,7.0,7.0,8.0,9.0,9.0,9.0,10.0,10.0,9.0,7.0,7.0,8.0,9.0,13.0,17.0,20.0,22.0,23.0,24.0,30.0,26.0,22.0,12.0,10.0,9.0,9.0,11.0,13.0,14.0,15.0,17.0,18.0,Modesto,CA,California,37.6375,-121.0028,354183,1955.8,POINT (-121.0028 37.6375)
394768,104,Lancaster,msa,PA,29.0,16.0,13.0,12.0,14.0,16.0,18.0,18.0,18.0,21.0,28.0,29.0,23.0,13.0,9.0,9.0,9.0,10.0,11.0,13.0,14.0,17.0,17.0,15.0,10.0,13.0,14.0,14.0,9.0,6.0,11.0,11.0,11.0,7.0,7.0,6.0,5.0,5.0,5.0,5.0,6.0,6.0,6.0,6.0,6.0,6.0,6.0,6.0,5.0,5.0,5.0,5.0,6.0,6.0,6.0,6.0,6.0,7.0,7.0,7.0,6.0,5.0,5.0,5.0,5.0,5.0,6.0,6.0,7.0,8.0,8.0,Lancaster,PA,Pennsylvania,40.042,-76.3012,402476,3096.9,POINT (-76.3012 40.042)
394997,105,Portland,msa,ME,34.0,22.0,16.0,14.0,15.0,18.0,25.0,28.0,35.0,44.0,57.0,52.0,39.0,20.0,14.0,12.0,13.0,16.0,20.0,25.0,27.0,36.0,45.0,45.0,32.0,18.0,13.0,14.0,12.0,12.0,16.0,16.0,17.0,14.0,15.0,15.0,11.0,9.0,8.0,10.0,10.0,10.0,8.0,8.0,8.0,9.0,9.0,8.0,7.0,6.0,6.0,7.0,8.0,9.0,10.0,10.0,10.0,13.0,16.0,14.0,11.0,7.0,7.0,7.0,7.0,8.0,8.0,9.0,10.0,14.0,18.0,Portland,ME,Maine,43.6773,-70.2715,209491,1223.9,POINT (-70.2715 43.6773)
395245,106,Youngstown,msa,OH,76.0,70.0,55.0,49.0,42.0,42.0,46.0,51.0,58.0,65.0,72.0,73.0,67.0,59.0,50.0,45.0,43.0,44.0,46.0,47.0,52.0,56.0,65.0,65.0,56.0,45.0,37.0,34.0,30.0,27.0,26.0,24.0,23.0,25.0,31.0,26.0,17.0,7.0,6.0,5.0,5.0,6.0,8.0,10.0,10.0,12.0,13.0,12.0,8.0,6.0,5.0,6.0,7.0,8.0,9.0,10.0,12.0,16.0,19.0,18.0,13.0,8.0,7.0,6.0,7.0,7.0,8.0,10.0,13.0,17.0,21.0,Youngstown,OH,Ohio,41.0993,-80.6463,319065,683.3,POINT (-80.6463 41.0993)
394770,107,Lansing,msa,MI,54.0,38.0,27.0,26.0,27.0,29.0,32.0,36.0,42.0,51.0,56.0,59.0,50.0,40.0,29.0,27.0,28.0,30.0,32.0,36.0,40.0,45.0,53.0,54.0,49.0,40.0,34.0,31.0,27.0,26.0,26.0,26.0,27.0,28.0,32.0,25.0,17.0,7.0,7.0,9.0,11.0,15.0,19.0,22.0,23.0,20.0,15.0,10.0,7.0,5.0,5.0,6.0,6.0,8.0,10.0,11.0,13.0,17.0,22.0,21.0,15.0,8.0,6.0,6.0,6.0,6.0,7.0,8.0,10.0,14.0,16.0,Lansing,MI,Michigan,42.7142,-84.5601,322561,1114.5,POINT (-84.5601 42.7142)
394590,108,Fayetteville,msa,AR,34.0,30.0,25.0,26.0,20.0,22.0,23.0,27.0,30.0,41.0,45.0,44.0,31.0,25.0,21.0,22.0,22.0,23.0,28.0,34.0,40.0,40.0,35.0,30.0,21.0,22.0,20.0,19.0,12.0,7.0,8.0,10.0,12.0,15.0,14.0,12.0,8.0,6.0,6.0,7.0,7.0,8.0,10.0,11.0,12.0,11.0,9.0,8.0,7.0,6.0,6.0,6.0,7.0,8.0,11.0,14.0,16.0,17.0,20.0,24.0,26.0,24.0,17.0,11.0,11.0,11.0,13.0,19.0,30.0,33.0,36.0,Fayetteville,AR,Arkansas,36.0714,-94.1661,394650,672.8,POINT (-94.1661 36.0714)
394589,109,Fayetteville,msa,NC,48.0,41.0,34.0,31.0,30.0,32.0,34.0,40.0,42.0,44.0,44.0,39.0,32.0,22.0,19.0,17.0,17.0,19.0,19.0,21.0,22.0,25.0,27.0,24.0,18.0,13.0,11.0,9.0,6.0,5.0,5.0,4.0,4.0,5.0,5.0,5.0,4.0,4.0,4.0,4.0,5.0,5.0,5.0,5.0,6.0,6.0,6.0,5.0,4.0,4.0,4.0,5.0,6.0,6.0,6.0,7.0,7.0,8.0,8.0,8.0,6.0,5.0,5.0,5.0,5.0,6.0,7.0,9.0,11.0,15.0,18.0,Fayetteville,NC,North Carolina,35.085,-78.9772,328804,543.5,POINT (-78.9772 35.085)
394792,110,Lexington,msa,KY,27.0,14.0,10.0,10.0,11.0,14.0,17.0,22.0,28.0,36.0,42.0,40.0,30.0,19.0,12.0,11.0,13.0,14.0,17.0,19.0,23.0,30.0,33.0,30.0,20.0,13.0,11.0,11.0,10.0,8.0,6.0,6.0,7.0,7.0,7.0,6.0,5.0,4.0,3.0,3.0,4.0,4.0,4.0,4.0,5.0,5.0,5.0,4.0,3.0,3.0,3.0,3.0,4.0,5.0,6.0,7.0,8.0,12.0,14.0,12.0,7.0,4.0,3.0,3.0,4.0,5.0,5.0,7.0,10.0,14.0,17.0,Lexington,KY,Kentucky,38.0423,-84.4587,321276,437.0,POINT (-84.4587 38.0423)
394971,111,Pensacola,msa,FL,,44.0,22.0,21.0,29.0,28.0,26.0,21.0,31.0,48.0,56.0,43.0,30.0,18.0,19.0,16.0,17.0,22.0,25.0,27.0,23.0,31.0,30.0,34.0,23.0,19.0,15.0,15.0,13.0,9.0,14.0,16.0,16.0,13.0,13.0,14.0,11.0,8.0,11.0,12.0,12.0,9.0,7.0,8.0,9.0,11.0,10.0,8.0,6.0,5.0,5.0,6.0,8.0,13.0,21.0,23.0,24.0,23.0,28.0,28.0,22.0,16.0,14.0,14.0,15.0,17.0,19.0,20.0,23.0,27.0,36.0,Pensacola,FL,Florida,30.4413,-87.1911,398813,917.0,POINT (-87.1911 30.4413)
395068,112,Santa Rosa,msa,CA,15.0,13.0,13.0,13.0,15.0,18.0,23.0,26.0,28.0,31.0,36.0,36.0,28.0,18.0,13.0,14.0,15.0,19.0,21.0,23.0,26.0,32.0,32.0,26.0,16.0,14.0,16.0,19.0,21.0,20.0,18.0,14.0,13.0,14.0,16.0,15.0,14.0,11.0,11.0,10.0,11.0,11.0,11.0,12.0,13.0,14.0,13.0,11.0,9.0,9.0,9.0,10.0,11.0,13.0,15.0,17.0,19.0,22.0,28.0,25.0,21.0,12.0,11.0,11.0,12.0,16.0,17.0,17.0,18.0,22.0,24.0,Santa Rosa,CA,California,38.4458,-122.7067,296180,1618.1,POINT (-122.7067 38.4458)
395019,113,Reno,msa,NV,14.0,9.0,9.0,9.0,12.0,16.0,22.0,27.0,33.0,37.0,46.0,44.0,37.0,22.0,15.0,13.0,15.0,19.0,24.0,31.0,34.0,45.0,50.0,43.0,24.0,12.0,14.0,15.0,13.0,10.0,8.0,7.0,7.0,7.0,7.0,6.0,6.0,5.0,5.0,6.0,6.0,6.0,7.0,7.0,9.0,10.0,10.0,8.0,5.0,5.0,6.0,8.0,14.0,21.0,28.0,,37.0,41.0,48.0,45.0,34.0,19.0,13.0,12.0,13.0,15.0,17.0,20.0,23.0,30.0,32.0,Reno,NV,Nevada,39.5497,-119.8483,457702,940.5,POINT (-119.8483 39.5497)
394698,114,Huntsville,msa,AL,54.0,33.0,22.0,22.0,19.0,22.0,24.0,24.0,25.0,23.0,30.0,26.0,22.0,12.0,10.0,11.0,11.0,13.0,12.0,13.0,14.0,21.0,20.0,17.0,8.0,7.0,8.0,8.0,7.0,6.0,6.0,6.0,7.0,9.0,16.0,15.0,11.0,4.0,4.0,4.0,4.0,4.0,5.0,5.0,5.0,5.0,5.0,4.0,4.0,4.0,4.0,4.0,5.0,6.0,7.0,9.0,11.0,15.0,21.0,21.0,19.0,13.0,11.0,10.0,11.0,13.0,13.0,15.0,17.0,23.0,30.0,Huntsville,AL,Alabama,34.6981,-86.6412,349482,376.2,POINT (-86.6412 34.6981)
394995,115,Port St. Lucie,msa,FL,46.0,41.0,41.0,43.0,45.0,44.0,43.0,40.0,39.0,41.0,49.0,51.0,52.0,51.0,51.0,50.0,48.0,50.0,48.0,51.0,46.0,49.0,47.0,46.0,43.0,41.0,46.0,50.0,48.0,40.0,33.0,29.0,27.0,24.0,27.0,25.0,19.0,10.0,8.0,7.0,7.0,7.0,7.0,7.0,8.0,8.0,9.0,8.0,7.0,7.0,7.0,8.0,10.0,13.0,17.0,22.0,26.0,31.0,34.0,36.0,34.0,30.0,26.0,23.0,21.0,21.0,21.0,20.0,22.0,27.0,34.0,Port St. Lucie,FL,Florida,27.2796,-80.3884,462047,681.8,POINT (-80.3884 27.2796)
394761,116,Lafayette,msa,LA,82.0,71.0,49.0,58.0,54.0,60.0,58.0,65.0,72.0,80.0,86.0,89.0,78.0,69.0,56.0,53.0,50.0,49.0,52.0,57.0,57.0,58.0,64.0,65.0,62.0,53.0,47.0,43.0,35.0,35.0,35.0,36.0,35.0,33.0,32.0,26.0,20.0,12.0,9.0,8.0,7.0,7.0,8.0,9.0,10.0,9.0,9.0,8.0,7.0,6.0,6.0,6.0,8.0,10.0,12.0,15.0,18.0,24.0,25.0,23.0,17.0,14.0,15.0,16.0,15.0,15.0,16.0,23.0,25.0,31.0,33.0,Lafayette,LA,Louisiana,30.2082,-92.0325,237565,839.2,POINT (-92.0325 30.2082)
394898,117,Myrtle Beach,msa,SC,54.0,41.0,38.0,41.0,40.0,39.0,40.0,44.0,46.0,50.0,52.0,54.0,47.0,39.0,34.0,37.0,41.0,43.0,42.0,40.0,41.0,47.0,53.0,50.0,41.0,46.0,51.0,55.0,44.0,34.0,28.0,25.0,25.0,25.0,24.0,21.0,15.0,10.0,8.0,6.0,6.0,6.0,6.0,7.0,7.0,8.0,8.0,7.0,6.0,5.0,5.0,6.0,8.0,11.0,15.0,18.0,21.0,25.0,31.0,31.0,28.0,21.0,19.0,18.0,20.0,21.0,22.0,23.0,27.0,33.0,40.0,Myrtle Beach,SC,South Carolina,33.7094,-78.8844,332181,594.6,POINT (-78.8844 33.7094)
395116,118,Springfield,msa,MO,31.0,19.0,15.0,13.0,13.0,16.0,20.0,23.0,28.0,33.0,41.0,39.0,32.0,20.0,14.0,12.0,11.0,13.0,15.0,18.0,20.0,25.0,27.0,27.0,18.0,13.0,10.0,9.0,7.0,7.0,7.0,7.0,7.0,9.0,10.0,8.0,5.0,3.0,3.0,3.0,4.0,5.0,6.0,6.0,6.0,6.0,6.0,5.0,4.0,4.0,4.0,4.0,6.0,7.0,9.0,10.0,12.0,15.0,20.0,20.0,17.0,11.0,8.0,7.0,8.0,9.0,10.0,12.0,14.0,20.0,24.0,Springfield,MO,Missouri,37.1943,-93.2916,286280,784.5,POINT (-93.2916 37.1943)
395195,119,Visalia,msa,CA,24.0,16.0,15.0,14.0,16.0,20.0,21.0,24.0,26.0,33.0,39.0,38.0,34.0,26.0,25.0,22.0,18.0,18.0,18.0,22.0,21.0,21.0,22.0,21.0,17.0,15.0,14.0,13.0,9.0,7.0,7.0,7.0,8.0,8.0,8.0,8.0,7.0,6.0,6.0,6.0,6.0,7.0,7.0,8.0,9.0,10.0,10.0,9.0,7.0,7.0,7.0,8.0,9.0,11.0,12.0,14.0,16.0,,,29.0,22.0,13.0,11.0,10.0,10.0,11.0,12.0,12.0,14.0,19.0,22.0,Visalia,CA,California,36.3276,-119.3269,163681,1433.0,POINT (-119.3269 36.3276)
394746,120,Killeen,msa,TX,31.0,20.0,17.0,15.0,15.0,17.0,22.0,27.0,30.0,30.0,30.0,27.0,21.0,15.0,12.0,12.0,13.0,14.0,15.0,18.0,18.0,21.0,23.0,23.0,17.0,13.0,10.0,10.0,7.0,6.0,6.0,5.0,5.0,6.0,6.0,6.0,6.0,5.0,5.0,5.0,5.0,6.0,6.0,6.0,6.0,7.0,7.0,7.0,5.0,5.0,5.0,6.0,7.0,9.0,13.0,,,,,35.0,31.0,23.0,19.0,18.0,19.0,23.0,25.0,28.0,33.0,40.0,45.0,Killeen,TX,Texas,31.0753,-97.7297,265921,1086.4,POINT (-97.7297 31.0753)
394338,121,Asheville,msa,NC,37.0,22.0,16.0,18.0,21.0,23.0,26.0,28.0,33.0,41.0,54.0,53.0,43.0,25.0,20.0,20.0,24.0,26.0,29.0,32.0,36.0,46.0,54.0,52.0,38.0,24.0,21.0,21.0,19.0,17.0,14.0,13.0,12.0,15.0,15.0,12.0,8.0,5.0,5.0,5.0,6.0,8.0,9.0,9.0,10.0,11.0,12.0,10.0,7.0,6.0,5.0,6.0,7.0,10.0,12.0,14.0,16.0,21.0,22.0,23.0,18.0,19.0,20.0,21.0,21.0,19.0,22.0,23.0,29.0,32.0,36.0,Asheville,NC,North Carolina,35.5707,-82.5537,294013,795.6,POINT (-82.5537 35.5707)
395244,122,York,msa,PA,55.0,34.0,22.0,21.0,24.0,22.0,25.0,30.0,32.0,35.0,44.0,47.0,39.0,22.0,14.0,13.0,14.0,17.0,20.0,22.0,25.0,30.0,37.0,32.0,23.0,17.0,18.0,17.0,10.0,6.0,11.0,10.0,11.0,7.0,7.0,6.0,4.0,4.0,4.0,4.0,5.0,6.0,6.0,6.0,6.0,7.0,6.0,6.0,5.0,5.0,5.0,5.0,6.0,6.0,7.0,7.0,8.0,10.0,10.0,9.0,6.0,5.0,5.0,5.0,5.0,6.0,7.0,7.0,9.0,11.0,13.0,York,PA,Pennsylvania,39.9651,-76.7315,247176,3267.0,POINT (-76.7315 39.9651)
395183,123,Vallejo,msa,CA,14.0,12.0,13.0,13.0,14.0,16.0,21.0,24.0,28.0,31.0,37.0,35.0,28.0,19.0,16.0,17.0,18.0,19.0,20.0,22.0,24.0,25.0,27.0,23.0,17.0,14.0,14.0,16.0,13.0,11.0,10.0,9.0,9.0,8.0,9.0,9.0,11.0,10.0,9.0,7.0,8.0,8.0,9.0,9.0,10.0,11.0,10.0,9.0,7.0,7.0,8.0,10.0,14.0,17.0,22.0,25.0,30.0,34.0,40.0,36.0,26.0,15.0,11.0,10.0,10.0,13.0,15.0,17.0,19.0,23.0,24.0,Vallejo,CA,California,38.1125,-122.2342,169541,1588.3,POINT (-122.2342 38.1125)
753917,124,Santa Maria,msa,CA,27.0,19.0,21.0,22.0,24.0,25.0,29.0,31.0,35.0,39.0,40.0,36.0,27.0,23.0,23.0,24.0,24.0,25.0,26.0,28.0,27.0,28.0,31.0,27.0,20.0,12.0,16.0,20.0,22.0,18.0,14.0,12.0,10.0,11.0,11.0,10.0,9.0,8.0,8.0,8.0,9.0,9.0,9.0,9.0,9.0,10.0,10.0,10.0,9.0,8.0,8.0,9.0,11.0,14.0,15.0,17.0,18.0,22.0,23.0,20.0,15.0,12.0,11.0,10.0,9.0,11.0,12.0,13.0,13.0,15.0,15.0,Santa Maria,CA,California,34.9333,-120.4431,143647,1854.2,POINT (-120.4431 34.9333)
395050,125,Salinas,msa,CA,29.0,18.0,17.0,17.0,19.0,20.0,20.0,23.0,24.0,31.0,39.0,39.0,31.0,20.0,19.0,21.0,25.0,29.0,29.0,27.0,27.0,31.0,41.0,36.0,27.0,16.0,18.0,21.0,21.0,18.0,14.0,13.0,13.0,13.0,13.0,13.0,12.0,11.0,10.0,10.0,10.0,11.0,12.0,13.0,13.0,14.0,14.0,13.0,10.0,11.0,12.0,13.0,15.0,16.0,20.0,22.0,26.0,28.0,34.0,32.0,26.0,16.0,13.0,13.0,12.0,12.0,15.0,16.0,17.0,19.0,22.0,Salinas,CA,California,36.6883,-121.6317,177410,2672.8,POINT (-121.6317 36.6883)
395048,126,Salem,msa,OR,20.0,14.0,14.0,15.0,17.0,17.0,19.0,19.0,27.0,34.0,44.0,39.0,32.0,23.0,21.0,23.0,23.0,24.0,26.0,27.0,33.0,37.0,44.0,40.0,29.0,20.0,16.0,16.0,15.0,12.0,12.0,9.0,11.0,10.0,15.0,13.0,11.0,5.0,5.0,5.0,6.0,7.0,7.0,9.0,10.0,11.0,9.0,8.0,6.0,5.0,6.0,6.0,8.0,13.0,17.0,20.0,23.0,32.0,38.0,34.0,23.0,13.0,10.0,9.0,11.0,13.0,16.0,21.0,27.0,31.0,35.0,Salem,OR,Oregon,44.9233,-123.0244,266420,1387.5,POINT (-123.0244 44.9233)
394870,127,Mobile,msa,AL,,,,,,,,,,,,,,,,,,,,,,,,,,,,,,,39.0,40.0,25.0,21.0,28.0,20.0,16.0,7.0,6.0,9.0,10.0,10.0,10.0,12.0,12.0,12.0,11.0,10.0,8.0,7.0,7.0,7.0,9.0,11.0,14.0,14.0,18.0,22.0,28.0,23.0,17.0,10.0,9.0,10.0,12.0,12.0,11.0,15.0,20.0,24.0,31.0,Mobile,AL,Alabama,30.6782,-88.1162,320855,515.7,POINT (-88.1162 30.6782)
395015,128,Reading,msa,PA,39.0,26.0,18.0,15.0,16.0,18.0,22.0,23.0,23.0,23.0,28.0,29.0,26.0,17.0,12.0,12.0,14.0,17.0,19.0,19.0,21.0,23.0,27.0,24.0,17.0,17.0,18.0,18.0,11.0,7.0,13.0,12.0,12.0,8.0,8.0,8.0,6.0,6.0,6.0,6.0,6.0,7.0,7.0,7.0,7.0,8.0,9.0,9.0,7.0,6.0,6.0,6.0,7.0,7.0,8.0,8.0,8.0,9.0,9.0,8.0,7.0,6.0,6.0,6.0,7.0,7.0,7.0,7.0,7.0,10.0,11.0,Reading,PA,Pennsylvania,40.34,-75.9267,272712,3710.8,POINT (-75.9267 40.34)
394502,129,Corpus Christi,msa,TX,71.0,57.0,46.0,41.0,44.0,47.0,54.0,60.0,62.0,64.0,68.0,70.0,62.0,50.0,45.0,42.0,44.0,46.0,50.0,54.0,55.0,57.0,61.0,60.0,55.0,44.0,40.0,34.0,28.0,21.0,19.0,18.0,16.0,17.0,18.0,19.0,14.0,11.0,9.0,8.0,8.0,9.0,11.0,12.0,13.0,14.0,15.0,15.0,13.0,10.0,8.0,9.0,12.0,15.0,20.0,23.0,27.0,32.0,41.0,44.0,40.0,31.0,25.0,21.0,21.0,24.0,28.0,30.0,34.0,39.0,46.0,Corpus Christi,TX,Texas,27.7254,-97.3767,337230,756.1,POINT (-97.3767 27.7254)
394421,130,Brownsville,msa,TX,65.0,68.0,63.0,63.0,51.0,46.0,51.0,60.0,71.0,78.0,86.0,72.0,60.0,52.0,56.0,55.0,54.0,60.0,63.0,62.0,58.0,55.0,57.0,53.0,53.0,52.0,55.0,61.0,57.0,49.0,39.0,37.0,35.0,34.0,34.0,34.0,31.0,25.0,23.0,20.0,18.0,17.0,17.0,18.0,22.0,25.0,26.0,24.0,21.0,20.0,19.0,19.0,21.0,25.0,30.0,31.0,32.0,36.0,38.0,39.0,35.0,37.0,41.0,41.0,40.0,34.0,40.0,40.0,45.0,42.0,45.0,Brownsville,TX,Texas,25.9975,-97.458,215269,548.4,POINT (-97.458 25.9975)
394820,131,Manchester,msa,NH,22.0,9.0,7.0,7.0,9.0,11.0,17.0,21.0,25.0,29.0,31.0,29.0,18.0,11.0,7.0,8.0,10.0,11.0,11.0,12.0,14.0,17.0,17.0,13.0,9.0,7.0,6.0,6.0,5.0,5.0,11.0,11.0,12.0,7.0,7.0,7.0,6.0,5.0,6.0,6.0,6.0,6.0,7.0,7.0,7.0,6.0,6.0,6.0,5.0,5.0,6.0,6.0,6.0,7.0,7.0,7.0,8.0,10.0,10.0,8.0,6.0,6.0,6.0,6.0,6.0,6.0,7.0,7.0,7.0,8.0,8.0,Manchester,NH,New Hampshire,42.9848,-71.4447,169097,1343.1,POINT (-71.4447 42.9848)
394612,132,Fort Wayne,msa,IN,,,,,,,,,,,,,,,,,,,,,,,,,,,21.0,18.0,11.0,7.0,11.0,12.0,10.0,7.0,11.0,10.0,8.0,3.0,3.0,3.0,3.0,3.0,4.0,4.0,4.0,4.0,4.0,4.0,3.0,3.0,3.0,3.0,4.0,4.0,4.0,5.0,6.0,8.0,9.0,8.0,5.0,3.0,3.0,3.0,3.0,4.0,5.0,7.0,9.0,12.0,14.0,Fort Wayne,IN,Indiana,41.0888,-85.1436,337163,923.0,POINT (-85.1436 41.0888)
394658,133,Gulfport,msa,MS,,,,,,,,,,,,,,,,,,,,,,,,,,,,,,,,,,,,,,,,,22.0,17.0,23.0,28.0,24.0,19.0,10.0,8.0,7.0,6.0,6.0,6.0,8.0,10.0,11.0,12.0,14.0,18.0,23.0,21.0,18.0,13.0,12.0,11.0,13.0,13.0,15.0,16.0,22.0,29.0,35.0,Gulfport,MS,Mississippi,30.4274,-89.0704,228022,503.4,POINT (-89.0704 30.4274)
394596,135,Flint,msa,MI,27.0,18.0,12.0,10.0,11.0,14.0,18.0,22.0,27.0,34.0,39.0,39.0,30.0,21.0,14.0,13.0,14.0,14.0,17.0,21.0,28.0,34.0,39.0,35.0,26.0,24.0,19.0,17.0,8.0,7.0,6.0,7.0,9.0,11.0,14.0,12.0,9.0,4.0,4.0,4.0,5.0,5.0,6.0,7.0,9.0,10.0,12.0,11.0,9.0,6.0,5.0,5.0,7.0,9.0,13.0,15.0,19.0,24.0,30.0,28.0,22.0,13.0,9.0,7.0,7.0,8.0,8.0,10.0,15.0,20.0,25.0,Flint,MI,Michigan,43.0236,-83.6921,293893,945.2,POINT (-83.6921 43.0236)
394972,136,Peoria,msa,IL,96.0,86.0,71.0,56.0,48.0,51.0,58.0,65.0,75.0,80.0,91.0,92.0,89.0,73.0,56.0,44.0,42.0,45.0,48.0,52.0,61.0,71.0,83.0,88.0,79.0,64.0,50.0,42.0,36.0,29.0,29.0,26.0,31.0,34.0,38.0,37.0,30.0,20.0,10.0,7.0,7.0,9.0,12.0,16.0,18.0,19.0,21.0,19.0,14.0,8.0,5.0,5.0,7.0,8.0,11.0,11.0,15.0,17.0,22.0,20.0,15.0,8.0,6.0,5.0,5.0,5.0,7.0,7.0,9.0,11.0,15.0,Peoria,IL,Illinois,40.752,-89.6154,253467,908.7,POINT (-89.6154 40.752)
394439,137,Canton,msa,OH,49.0,37.0,31.0,25.0,26.0,28.0,32.0,36.0,38.0,43.0,48.0,48.0,41.0,32.0,27.0,24.0,25.0,28.0,29.0,31.0,34.0,41.0,46.0,42.0,33.0,25.0,22.0,19.0,14.0,12.0,13.0,12.0,13.0,12.0,18.0,17.0,13.0,6.0,4.0,4.0,4.0,5.0,6.0,7.0,8.0,10.0,10.0,9.0,7.0,5.0,4.0,4.0,5.0,7.0,8.0,9.0,11.0,12.0,15.0,13.0,11.0,7.0,6.0,5.0,5.0,5.0,6.0,8.0,9.0,13.0,17.0,Canton,OH,Ohio,40.8078,-81.3676,294047,1034.3,POINT (-81.3676 40.8078)
395070,138,Savannah,msa,GA,35.0,25.0,27.0,30.0,32.0,34.0,33.0,34.0,33.0,37.0,40.0,41.0,34.0,26.0,25.0,26.0,27.0,26.0,29.0,31.0,33.0,35.0,39.0,36.0,29.0,20.0,20.0,21.0,20.0,18.0,17.0,16.0,16.0,17.0,17.0,14.0,9.0,6.0,5.0,5.0,5.0,6.0,6.0,6.0,6.0,6.0,6.0,5.0,5.0,5.0,5.0,5.0,6.0,7.0,8.0,8.0,10.0,13.0,14.0,13.0,9.0,7.0,6.0,8.0,13.0,17.0,20.0,20.0,22.0,25.0,28.0,Savannah,GA,Georgia,32.0286,-81.1821,316050,524.8,POINT (-81.1821 32.0286)
394327,139,Anchorage,msa,AK,44.0,26.0,23.0,24.0,26.0,31.0,36.0,47.0,55.0,66.0,68.0,62.0,44.0,28.0,19.0,19.0,20.0,25.0,30.0,35.0,43.0,49.0,55.0,48.0,35.0,22.0,15.0,15.0,13.0,14.0,16.0,17.0,18.0,20.0,17.0,13.0,6.0,4.0,4.0,5.0,6.0,7.0,9.0,12.0,14.0,13.0,10.0,7.0,5.0,4.0,4.0,5.0,6.0,9.0,11.0,11.0,13.0,13.0,15.0,12.0,8.0,4.0,4.0,4.0,5.0,6.0,8.0,10.0,13.0,17.0,18.0,Anchorage,AK,Alaska,61.1508,-149.1091,290674,65.8,POINT (-149.1091 61.1508)
394372,140,Beaumont,msa,TX,21.0,21.0,19.0,17.0,16.0,16.0,21.0,23.0,28.0,31.0,37.0,37.0,34.0,30.0,30.0,28.0,29.0,29.0,32.0,29.0,30.0,34.0,51.0,49.0,44.0,31.0,33.0,30.0,27.0,23.0,31.0,32.0,33.0,28.0,31.0,27.0,26.0,18.0,17.0,13.0,12.0,12.0,16.0,17.0,18.0,21.0,23.0,21.0,15.0,14.0,13.0,12.0,13.0,16.0,21.0,24.0,27.0,31.0,39.0,42.0,37.0,27.0,20.0,19.0,21.0,27.0,28.0,28.0,28.0,36.0,48.0,Beaumont,TX,Texas,30.0849,-94.1451,140930,537.6,POINT (-94.1451 30.0849)
395096,141,Shreveport,msa,LA,,,,,,,,,,,,,,,,,,,,,,,109.0,106.0,87.0,75.0,60.0,66.0,57.0,55.0,43.0,38.0,42.0,44.0,47.0,34.0,25.0,13.0,9.0,8.0,9.0,10.0,11.0,12.0,13.0,17.0,19.0,20.0,16.0,11.0,8.0,7.0,8.0,10.0,13.0,13.0,15.0,20.0,26.0,27.0,22.0,16.0,13.0,13.0,13.0,14.0,17.0,18.0,23.0,27.0,37.0,Shreveport,LA,Louisiana,32.4653,-93.7955,283536,664.7,POINT (-93.7955 32.4653)
395164,142,Trenton,msa,NJ,57.0,37.0,31.0,35.0,37.0,41.0,40.0,40.0,40.0,44.0,47.0,45.0,35.0,28.0,23.0,28.0,32.0,39.0,40.0,44.0,43.0,48.0,51.0,47.0,35.0,27.0,26.0,24.0,19.0,15.0,16.0,15.0,18.0,20.0,20.0,18.0,11.0,9.0,8.0,9.0,11.0,12.0,14.0,14.0,14.0,15.0,15.0,13.0,10.0,8.0,9.0,10.0,12.0,13.0,14.0,13.0,14.0,17.0,19.0,17.0,13.0,11.0,10.0,10.0,10.0,10.0,11.0,12.0,15.0,17.0,18.0,Trenton,NJ,New Jersey,40.2237,-74.7641,362179,4571.3,POINT (-74.7641 40.2237)
394875,143,Montgomery,msa,AL,66.0,49.0,41.0,47.0,49.0,49.0,51.0,57.0,66.0,70.0,72.0,65.0,57.0,45.0,32.0,31.0,32.0,36.0,35.0,38.0,39.0,43.0,46.0,40.0,32.0,22.0,19.0,19.0,16.0,15.0,13.0,14.0,14.0,17.0,19.0,17.0,11.0,7.0,6.0,5.0,5.0,5.0,6.0,7.0,6.0,6.0,5.0,5.0,5.0,5.0,5.0,6.0,6.0,8.0,9.0,10.0,11.0,13.0,16.0,16.0,13.0,10.0,9.0,9.0,9.0,10.0,11.0,14.0,17.0,23.0,25.0,Montgomery,AL,Alabama,32.3482,-86.2668,251158,482.6,POINT (-86.2668 32.3482)
395146,145,Tallahassee,msa,FL,25.0,21.0,21.0,22.0,21.0,23.0,26.0,35.0,40.0,45.0,45.0,38.0,29.0,20.0,20.0,19.0,21.0,24.0,28.0,29.0,33.0,36.0,36.0,30.0,22.0,19.0,18.0,18.0,19.0,18.0,18.0,16.0,16.0,15.0,14.0,12.0,9.0,7.0,6.0,5.0,6.0,7.0,8.0,9.0,10.0,10.0,9.0,7.0,6.0,5.0,5.0,5.0,6.0,8.0,11.0,12.0,13.0,16.0,17.0,16.0,11.0,9.0,7.0,7.0,8.0,9.0,11.0,12.0,13.0,16.0,19.0,Tallahassee,FL,Florida,30.4551,-84.2527,258696,751.3,POINT (-84.2527 30.4551)
394576,146,Eugene,msa,OR,15.0,10.0,8.0,8.0,10.0,12.0,17.0,21.0,25.0,28.0,30.0,26.0,18.0,11.0,9.0,8.0,10.0,11.0,12.0,15.0,18.0,22.0,20.0,16.0,9.0,8.0,9.0,10.0,9.0,7.0,7.0,7.0,7.0,7.0,7.0,6.0,6.0,5.0,6.0,6.0,6.0,7.0,7.0,8.0,9.0,9.0,8.0,7.0,6.0,6.0,6.0,6.0,9.0,12.0,14.0,14.0,15.0,20.0,23.0,21.0,14.0,9.0,8.0,9.0,10.0,12.0,16.0,20.0,23.0,29.0,38.0,Eugene,OR,Oregon,44.0564,-123.1174,270990,1543.4,POINT (-123.1174 44.0564)
394901,147,Naples,msa,FL,69.0,67.0,70.0,69.0,68.0,68.0,72.0,70.0,66.0,63.0,68.0,74.0,73.0,75.0,78.0,84.0,86.0,85.0,83.0,73.0,65.0,63.0,69.0,68.0,64.0,62.0,70.0,74.0,70.0,61.0,55.0,47.0,42.0,36.0,35.0,30.0,22.0,14.0,9.0,7.0,7.0,8.0,8.0,8.0,8.0,8.0,7.0,6.0,6.0,6.0,8.0,11.0,16.0,22.0,27.0,29.0,28.0,28.0,27.0,27.0,27.0,27.0,30.0,33.0,36.0,37.0,36.0,34.0,32.0,37.0,42.0,Naples,FL,Florida,26.1504,-81.7936,19315,606.2,POINT (-81.7936 26.1504)
394332,148,Ann Arbor,msa,MI,15.0,8.0,7.0,8.0,10.0,12.0,17.0,22.0,30.0,33.0,34.0,27.0,19.0,12.0,10.0,11.0,15.0,18.0,24.0,27.0,32.0,40.0,49.0,47.0,33.0,24.0,19.0,20.0,17.0,18.0,24.0,25.0,25.0,27.0,31.0,26.0,15.0,5.0,5.0,5.0,6.0,10.0,17.0,23.0,22.0,18.0,15.0,12.0,9.0,5.0,5.0,5.0,6.0,8.0,11.0,13.0,16.0,19.0,21.0,17.0,11.0,7.0,6.0,5.0,5.0,7.0,8.0,8.0,10.0,15.0,17.0,Ann Arbor,MI,Michigan,42.2759,-83.731,308983,1671.9,POINT (-83.731 42.2759)
394927,149,Ocala,msa,FL,44.0,38.0,35.0,34.0,30.0,29.0,31.0,32.0,34.0,35.0,40.0,38.0,37.0,32.0,36.0,36.0,35.0,32.0,32.0,32.0,34.0,36.0,39.0,37.0,32.0,29.0,27.0,28.0,24.0,22.0,17.0,14.0,13.0,14.0,17.0,18.0,15.0,9.0,7.0,6.0,6.0,7.0,7.0,8.0,8.0,9.0,9.0,8.0,7.0,6.0,7.0,8.0,10.0,12.0,16.0,20.0,22.0,26.0,29.0,33.0,32.0,29.0,26.0,25.0,24.0,23.0,23.0,25.0,28.0,34.0,41.0,Ocala,FL,Florida,29.178,-82.1511,186840,518.8,POINT (-82.1511 29.178)
394679,150,Hickory,msa,NC,56.0,30.0,17.0,15.0,15.0,17.0,17.0,22.0,25.0,32.0,35.0,33.0,30.0,24.0,19.0,15.0,15.0,17.0,18.0,18.0,20.0,26.0,31.0,30.0,21.0,17.0,16.0,18.0,16.0,14.0,11.0,8.0,8.0,9.0,11.0,10.0,9.0,5.0,5.0,5.0,6.0,7.0,8.0,9.0,9.0,10.0,10.0,9.0,7.0,6.0,6.0,6.0,8.0,10.0,12.0,11.0,14.0,17.0,23.0,23.0,19.0,15.0,12.0,15.0,16.0,17.0,18.0,19.0,22.0,27.0,33.0,Hickory,NC,North Carolina,35.741,-81.3223,206008,539.2,POINT (-81.3223 35.741)
394602,152,Fort Collins,msa,CO,15.0,10.0,9.0,8.0,10.0,13.0,22.0,28.0,36.0,41.0,48.0,41.0,32.0,19.0,21.0,17.0,18.0,16.0,22.0,27.0,29.0,32.0,28.0,22.0,12.0,10.0,10.0,12.0,11.0,11.0,11.0,11.0,11.0,12.0,14.0,12.0,9.0,6.0,6.0,6.0,6.0,8.0,11.0,10.0,9.0,6.0,5.0,5.0,6.0,6.0,6.0,8.0,12.0,16.0,20.0,25.0,29.0,33.0,38.0,35.0,26.0,13.0,9.0,8.0,13.0,19.0,24.0,29.0,35.0,39.0,36.0,Fort Collins,CO,Colorado,40.5477,-105.0656,335398,1142.2,POINT (-105.0656 40.5477)
395033,153,Rockford,msa,IL,37.0,28.0,18.0,15.0,18.0,19.0,22.0,26.0,31.0,33.0,36.0,42.0,37.0,27.0,15.0,12.0,13.0,15.0,19.0,23.0,28.0,37.0,45.0,46.0,36.0,26.0,19.0,14.0,10.0,8.0,10.0,10.0,10.0,10.0,13.0,12.0,9.0,5.0,4.0,4.0,5.0,7.0,8.0,9.0,8.0,9.0,11.0,11.0,8.0,5.0,4.0,5.0,6.0,6.0,7.0,7.0,8.0,12.0,16.0,15.0,10.0,6.0,5.0,5.0,5.0,5.0,5.0,6.0,8.0,10.0,14.0,Rockford,IL,Illinois,42.2596,-89.064,273237,881.3,POINT (-89.064 42.2596)
394796,154,Lincoln,msa,NE,,,,,,,,,,,,,,,,,,,,,,,48.0,48.0,32.0,17.0,10.0,9.0,8.0,7.0,10.0,10.0,12.0,7.0,14.0,11.0,11.0,3.0,3.0,4.0,4.0,5.0,5.0,5.0,6.0,8.0,8.0,6.0,4.0,3.0,4.0,4.0,5.0,6.0,8.0,9.0,11.0,12.0,14.0,12.0,8.0,5.0,4.0,4.0,5.0,6.0,8.0,11.0,16.0,22.0,27.0,Lincoln,NE,Nebraska,40.8099,-96.6784,290531,1132.1,POINT (-96.6784 40.8099)
394622,155,Gainesville,msa,FL,26.0,22.0,18.0,17.0,21.0,26.0,34.0,37.0,42.0,44.0,44.0,36.0,27.0,23.0,23.0,25.0,24.0,27.0,29.0,28.0,25.0,25.0,27.0,23.0,16.0,14.0,19.0,21.0,19.0,16.0,17.0,17.0,17.0,16.0,18.0,16.0,18.0,13.0,11.0,6.0,7.0,8.0,10.0,11.0,12.0,13.0,12.0,10.0,7.0,5.0,5.0,6.0,8.0,10.0,12.0,14.0,19.0,25.0,30.0,26.0,18.0,13.0,10.0,10.0,12.0,16.0,18.0,18.0,21.0,22.0,27.0,Gainesville,FL,Florida,29.6804,-82.3459,220929,860.2,POINT (-82.3459 29.6804)
394405,156,Boulder,msa,CO,12.0,8.0,7.0,9.0,11.0,15.0,19.0,25.0,30.0,35.0,33.0,27.0,19.0,13.0,16.0,17.0,19.0,21.0,24.0,28.0,31.0,37.0,38.0,30.0,16.0,9.0,9.0,9.0,10.0,10.0,10.0,9.0,10.0,13.0,12.0,10.0,6.0,5.0,5.0,5.0,6.0,7.0,10.0,11.0,11.0,8.0,7.0,6.0,5.0,5.0,5.0,8.0,11.0,16.0,20.0,26.0,33.0,43.0,47.0,36.0,21.0,10.0,9.0,10.0,14.0,19.0,19.0,24.0,28.0,35.0,35.0,Boulder,CO,Colorado,40.0248,-105.2524,118090,1534.8,POINT (-105.2524 40.0248)
394646,157,Green Bay,msa,WI,68.0,55.0,50.0,48.0,46.0,44.0,46.0,47.0,51.0,59.0,72.0,84.0,80.0,68.0,51.0,46.0,47.0,50.0,52.0,50.0,54.0,56.0,70.0,66.0,67.0,55.0,54.0,51.0,46.0,46.0,46.0,47.0,48.0,49.0,53.0,50.0,45.0,40.0,39.0,40.0,40.0,43.0,43.0,42.0,43.0,45.0,48.0,43.0,40.0,34.0,35.0,35.0,37.0,38.0,40.0,42.0,42.0,41.0,45.0,42.0,39.0,32.0,34.0,35.0,36.0,36.0,37.0,38.0,40.0,41.0,44.0,Green Bay,WI,Wisconsin,44.5148,-87.9895,225633,907.1,POINT (-87.9895 44.5148)
394488,158,Columbus,msa,GA,73.0,68.0,57.0,67.0,62.0,52.0,39.0,52.0,60.0,78.0,78.0,80.0,59.0,45.0,30.0,32.0,30.0,33.0,45.0,46.0,52.0,42.0,50.0,54.0,56.0,44.0,36.0,29.0,23.0,15.0,14.0,14.0,16.0,15.0,18.0,16.0,12.0,14.0,11.0,11.0,5.0,6.0,6.0,7.0,8.0,8.0,8.0,7.0,5.0,5.0,5.0,5.0,6.0,8.0,9.0,10.0,13.0,16.0,18.0,14.0,9.0,7.0,7.0,7.0,8.0,8.0,9.0,11.0,13.0,16.0,16.0,Columbus,GA,Georgia,32.51,-84.8771,264282,364.8,POINT (-84.8771 32.51)
395107,159,South Bend,msa,IN,,,,,,,,,,,,,,,,,,,,,,,,,,,40.0,29.0,16.0,18.0,22.0,22.0,16.0,15.0,23.0,21.0,16.0,6.0,5.0,5.0,5.0,5.0,6.0,6.0,7.0,8.0,8.0,7.0,5.0,5.0,5.0,5.0,5.0,7.0,8.0,9.0,9.0,10.0,13.0,12.0,10.0,6.0,5.0,5.0,6.0,6.0,8.0,10.0,14.0,18.0,24.0,South Bend,IN,Indiana,41.6767,-86.2696,278061,948.2,POINT (-86.2696 41.6767)
395109,160,Spartanburg,msa,SC,23.0,19.0,15.0,15.0,14.0,17.0,20.0,21.0,27.0,27.0,28.0,24.0,22.0,19.0,18.0,18.0,19.0,17.0,19.0,22.0,24.0,30.0,33.0,36.0,28.0,24.0,22.0,22.0,19.0,14.0,19.0,17.0,17.0,9.0,14.0,13.0,10.0,4.0,7.0,7.0,7.0,4.0,4.0,5.0,5.0,5.0,5.0,5.0,4.0,4.0,4.0,4.0,5.0,7.0,10.0,13.0,16.0,20.0,23.0,23.0,18.0,13.0,10.0,9.0,9.0,11.0,11.0,13.0,17.0,20.0,26.0,Spartanburg,SC,South Carolina,34.9442,-81.9251,200000,730.2,POINT (-81.9251 34.9442)
394645,161,Greeley,msa,CO,10.0,7.0,7.0,8.0,9.0,12.0,14.0,19.0,22.0,32.0,31.0,27.0,17.0,13.0,15.0,14.0,16.0,13.0,15.0,18.0,20.0,23.0,20.0,16.0,10.0,8.0,8.0,9.0,8.0,7.0,7.0,7.0,7.0,6.0,7.0,7.0,6.0,6.0,5.0,5.0,5.0,5.0,7.0,7.0,8.0,6.0,6.0,5.0,5.0,5.0,5.0,6.0,8.0,11.0,,,,,36.0,29.0,20.0,14.0,13.0,12.0,15.0,19.0,22.0,25.0,29.0,35.0,35.0,Greeley,CO,Colorado,40.4152,-104.7706,140984,843.2,POINT (-104.7706 40.4152)
394808,162,Lubbock,msa,TX,,,,,,,,,,,,,,,,,,,,,,,,,,,,,,,23.0,25.0,23.0,20.0,23.0,22.0,17.0,9.0,11.0,9.0,8.0,5.0,6.0,7.0,7.0,7.0,7.0,6.0,5.0,4.0,4.0,5.0,5.0,7.0,11.0,13.0,16.0,19.0,23.0,20.0,16.0,11.0,11.0,11.0,12.0,18.0,20.0,24.0,25.0,35.0,41.0,Lubbock,TX,Texas,33.5657,-101.8879,280890,722.2,POINT (-101.8879 33.5657)
394471,163,Clarksville,msa,TN,36.0,26.0,18.0,17.0,18.0,18.0,21.0,21.0,26.0,27.0,33.0,34.0,31.0,25.0,18.0,16.0,20.0,22.0,26.0,31.0,38.0,52.0,52.0,48.0,31.0,25.0,28.0,34.0,36.0,35.0,35.0,35.0,35.0,35.0,30.0,20.0,8.0,3.0,3.0,4.0,4.0,4.0,4.0,4.0,4.0,4.0,4.0,4.0,4.0,4.0,4.0,4.0,5.0,7.0,9.0,12.0,16.0,22.0,25.0,24.0,18.0,11.0,8.0,7.0,8.0,9.0,12.0,14.0,18.0,23.0,34.0,Clarksville,TN,Tennessee,36.5692,-87.3413,210551,650.9,POINT (-87.3413 36.5692)
395028,164,Roanoke,msa,VA,,,,,,,,,77.0,72.0,62.0,51.0,44.0,28.0,23.0,21.0,22.0,22.0,25.0,28.0,32.0,34.0,38.0,35.0,28.0,19.0,14.0,14.0,12.0,10.0,9.0,9.0,11.0,13.0,13.0,11.0,7.0,5.0,4.0,4.0,5.0,6.0,7.0,7.0,8.0,8.0,7.0,5.0,4.0,4.0,4.0,4.0,5.0,7.0,8.0,9.0,10.0,12.0,12.0,11.0,9.0,7.0,6.0,5.0,5.0,6.0,8.0,9.0,11.0,12.0,15.0,Roanoke,VA,Virginia,37.2785,-79.9581,218533,900.9,POINT (-79.9581 37.2785)
394579,165,Evansville,msa,IN,59.0,33.0,17.0,14.0,14.0,18.0,23.0,34.0,53.0,71.0,82.0,85.0,62.0,45.0,19.0,19.0,19.0,21.0,37.0,38.0,47.0,53.0,50.0,45.0,25.0,26.0,26.0,18.0,15.0,7.0,11.0,11.0,11.0,8.0,17.0,16.0,14.0,4.0,4.0,4.0,4.0,5.0,6.0,7.0,8.0,8.0,8.0,6.0,4.0,4.0,4.0,4.0,5.0,6.0,7.0,7.0,7.0,12.0,16.0,17.0,12.0,6.0,4.0,5.0,5.0,6.0,6.0,7.0,10.0,15.0,22.0,Evansville,IN,Indiana,37.9881,-87.5341,203661,953.2,POINT (-87.5341 37.9881)
394747,167,Kingsport,msa,TN,76.0,53.0,33.0,26.0,25.0,29.0,33.0,35.0,42.0,51.0,65.0,68.0,60.0,43.0,27.0,21.0,20.0,19.0,22.0,23.0,30.0,38.0,51.0,55.0,46.0,32.0,23.0,20.0,17.0,12.0,12.0,11.0,12.0,13.0,14.0,12.0,9.0,5.0,5.0,5.0,5.0,6.0,8.0,9.0,10.0,12.0,12.0,9.0,6.0,4.0,4.0,5.0,6.0,7.0,9.0,9.0,10.0,13.0,14.0,14.0,10.0,8.0,7.0,8.0,8.0,9.0,9.0,9.0,13.0,16.0,25.0,Kingsport,TN,Tennessee,36.5224,-82.5454,101323,406.7,POINT (-82.5454 36.5224)
394741,168,Kennewick,msa,WA,23.0,11.0,9.0,9.0,9.0,11.0,12.0,16.0,20.0,27.0,31.0,27.0,21.0,12.0,10.0,8.0,10.0,11.0,12.0,17.0,23.0,29.0,28.0,24.0,16.0,11.0,9.0,8.0,7.0,7.0,8.0,7.0,7.0,11.0,11.0,10.0,5.0,4.0,4.0,4.0,5.0,5.0,5.0,5.0,6.0,6.0,6.0,5.0,4.0,4.0,5.0,7.0,8.0,11.0,15.0,16.0,21.0,27.0,,41.0,31.0,14.0,10.0,11.0,13.0,15.0,17.0,18.0,20.0,27.0,31.0,Kennewick,WA,Washington,46.1978,-119.1732,259995,1138.5,POINT (-119.1732 46.1978)
395179,169,Utica,msa,NY,77.0,63.0,45.0,41.0,39.0,46.0,55.0,63.0,63.0,71.0,77.0,88.0,95.0,82.0,59.0,29.0,24.0,25.0,33.0,37.0,47.0,53.0,68.0,65.0,57.0,49.0,41.0,32.0,15.0,13.0,13.0,14.0,15.0,20.0,31.0,32.0,26.0,13.0,8.0,7.0,8.0,9.0,11.0,13.0,14.0,16.0,25.0,25.0,21.0,11.0,8.0,8.0,8.0,11.0,12.0,16.0,18.0,28.0,36.0,37.0,26.0,14.0,8.0,7.0,8.0,8.0,10.0,12.0,16.0,24.0,39.0,Utica,NY,New York,43.0962,-75.2261,116766,1494.5,POINT (-75.2261 43.0962)
394660,170,Hagerstown,msa,MD,52.0,42.0,38.0,35.0,31.0,28.0,31.0,33.0,36.0,40.0,50.0,50.0,41.0,28.0,22.0,22.0,24.0,25.0,25.0,26.0,28.0,37.0,47.0,47.0,36.0,23.0,18.0,18.0,13.0,10.0,10.0,10.0,10.0,7.0,7.0,7.0,6.0,5.0,5.0,5.0,6.0,6.0,7.0,7.0,7.0,8.0,8.0,7.0,6.0,5.0,6.0,6.0,8.0,9.0,10.0,11.0,13.0,16.0,18.0,15.0,11.0,7.0,7.0,7.0,7.0,7.0,9.0,10.0,12.0,15.0,18.0,Hagerstown,MD,Maryland,39.6401,-77.7217,195261,1334.0,POINT (-77.7217 39.6401)
394543,171,Duluth,msa,MN,57.0,33.0,17.0,15.0,18.0,22.0,26.0,32.0,37.0,50.0,58.0,52.0,34.0,16.0,11.0,10.0,13.0,20.0,25.0,30.0,36.0,50.0,59.0,49.0,29.0,13.0,10.0,11.0,10.0,12.0,13.0,15.0,20.0,24.0,29.0,23.0,16.0,8.0,5.0,5.0,7.0,8.0,10.0,9.0,9.0,10.0,13.0,13.0,10.0,6.0,5.0,5.0,6.0,8.0,9.0,11.0,15.0,18.0,23.0,20.0,15.0,8.0,6.0,6.0,7.0,8.0,11.0,13.0,16.0,21.0,24.0,Duluth,MN,Minnesota,46.7756,-92.1393,118574,467.5,POINT (-92.1393 46.7756)
394937,172,Olympia,msa,WA,9.0,7.0,6.0,7.0,7.0,9.0,11.0,15.0,17.0,19.0,18.0,16.0,11.0,7.0,6.0,6.0,7.0,7.0,8.0,8.0,9.0,11.0,9.0,8.0,5.0,5.0,4.0,4.0,4.0,4.0,5.0,5.0,5.0,5.0,5.0,5.0,5.0,5.0,5.0,5.0,6.0,6.0,6.0,6.0,6.0,6.0,6.0,5.0,5.0,5.0,5.0,6.0,,,,,,,,32.0,21.0,10.0,6.0,5.0,7.0,8.0,10.0,10.0,15.0,18.0,21.0,Olympia,WA,Washington,47.0417,-122.8959,210877,1168.7,POINT (-122.8959 47.0417)
394803,173,Longview,msa,TX,,,,,,,,,,,,,,,,,,,,,,,,,,,,,,,,,,,,,46.0,37.0,35.0,27.0,23.0,25.0,31.0,33.0,34.0,33.0,34.0,32.0,30.0,27.0,23.0,20.0,20.0,25.0,27.0,29.0,32.0,34.0,38.0,34.0,33.0,28.0,29.0,29.0,33.0,32.0,34.0,32.0,36.0,40.0,48.0,Longview,TX,Texas,32.5193,-94.7622,111855,568.3,POINT (-94.7622 32.5193)
395229,174,Wilmington,msa,NC,30.0,21.0,20.0,20.0,21.0,24.0,29.0,38.0,37.0,35.0,29.0,28.0,23.0,16.0,13.0,14.0,17.0,19.0,22.0,23.0,25.0,26.0,27.0,28.0,21.0,19.0,16.0,18.0,16.0,13.0,11.0,10.0,10.0,10.0,11.0,9.0,7.0,5.0,4.0,5.0,5.0,6.0,6.0,7.0,7.0,7.0,6.0,5.0,4.0,4.0,4.0,4.0,5.0,7.0,9.0,10.0,12.0,14.0,17.0,15.0,11.0,7.0,7.0,8.0,9.0,9.0,10.0,12.0,13.0,22.0,28.0,Wilmington,NC,North Carolina,34.2099,-77.8866,268625,878.3,POINT (-77.8866 34.2099)
395061,175,San Luis Obispo,msa,CA,18.0,16.0,17.0,20.0,21.0,26.0,30.0,38.0,39.0,39.0,40.0,34.0,29.0,18.0,18.0,17.0,20.0,23.0,26.0,28.0,30.0,38.0,38.0,32.0,20.0,16.0,21.0,24.0,23.0,16.0,13.0,11.0,10.0,10.0,10.0,10.0,8.0,7.0,7.0,7.0,8.0,8.0,9.0,8.0,9.0,10.0,10.0,9.0,7.0,7.0,8.0,8.0,10.0,13.0,16.0,17.0,17.0,20.0,22.0,21.0,14.0,11.0,9.0,10.0,12.0,12.0,12.0,11.0,14.0,19.0,25.0,San Luis Obispo,CA,California,35.2669,-120.669,47529,1362.5,POINT (-120.669 35.2669)
753875,176,Crestview,msa,FL,87.0,66.0,55.0,37.0,40.0,39.0,40.0,45.0,50.0,55.0,49.0,43.0,33.0,28.0,26.0,26.0,27.0,27.0,26.0,29.0,29.0,33.0,35.0,34.0,25.0,18.0,18.0,25.0,28.0,25.0,23.0,23.0,23.0,24.0,24.0,21.0,15.0,10.0,13.0,13.0,13.0,8.0,9.0,10.0,11.0,12.0,11.0,10.0,6.0,5.0,6.0,8.0,11.0,15.0,18.0,21.0,27.0,33.0,39.0,36.0,32.0,26.0,25.0,24.0,26.0,28.0,31.0,33.0,38.0,43.0,50.0,Crestview,FL,Florida,30.7477,-86.5785,27427,621.8,POINT (-86.5785 30.7477)
394851,177,Merced,msa,CA,27.0,19.0,18.0,18.0,17.0,17.0,18.0,21.0,24.0,32.0,43.0,46.0,41.0,27.0,23.0,19.0,21.0,21.0,28.0,29.0,32.0,35.0,38.0,33.0,23.0,16.0,15.0,15.0,15.0,12.0,10.0,9.0,11.0,12.0,13.0,11.0,9.0,7.0,7.0,8.0,8.0,9.0,10.0,11.0,11.0,13.0,13.0,12.0,10.0,10.0,10.0,12.0,17.0,21.0,29.0,28.0,30.0,29.0,38.0,37.0,32.0,20.0,15.0,14.0,12.0,12.0,13.0,17.0,22.0,28.0,30.0,Merced,CA,California,37.3057,-120.4779,160638,1455.9,POINT (-120.4779 37.3057)
395197,178,Waco,msa,TX,35.0,25.0,21.0,19.0,27.0,33.0,37.0,33.0,32.0,37.0,43.0,40.0,32.0,21.0,18.0,14.0,16.0,21.0,27.0,28.0,29.0,32.0,37.0,34.0,27.0,20.0,17.0,16.0,15.0,13.0,13.0,13.0,13.0,14.0,14.0,12.0,9.0,6.0,5.0,5.0,6.0,7.0,8.0,9.0,10.0,11.0,12.0,11.0,9.0,7.0,7.0,7.0,9.0,12.0,15.0,18.0,20.0,26.0,35.0,37.0,31.0,22.0,20.0,23.0,25.0,27.0,29.0,35.0,35.0,38.0,45.0,Waco,TX,Texas,31.5599,-97.1882,195709,604.6,POINT (-97.1882 31.5599)
394447,179,Cedar Rapids,msa,IA,51.0,32.0,18.0,15.0,19.0,21.0,23.0,27.0,33.0,45.0,61.0,59.0,47.0,23.0,18.0,18.0,22.0,26.0,29.0,33.0,36.0,47.0,59.0,61.0,46.0,28.0,18.0,17.0,13.0,15.0,15.0,17.0,16.0,16.0,22.0,18.0,15.0,6.0,5.0,5.0,6.0,8.0,10.0,10.0,10.0,13.0,18.0,16.0,11.0,5.0,5.0,5.0,6.0,9.0,12.0,14.0,18.0,23.0,29.0,24.0,17.0,9.0,7.0,6.0,7.0,9.0,11.0,12.0,16.0,24.0,33.0,Cedar Rapids,IA,Iowa,41.9662,-91.6783,191104,724.0,POINT (-91.6783 41.9662)
394348,180,Atlantic City,msa,NJ,71.0,57.0,51.0,52.0,53.0,54.0,53.0,55.0,57.0,69.0,81.0,77.0,66.0,52.0,52.0,57.0,57.0,53.0,47.0,43.0,53.0,64.0,72.0,61.0,49.0,43.0,53.0,54.0,57.0,44.0,38.0,32.0,31.0,30.0,39.0,39.0,38.0,25.0,22.0,18.0,18.0,19.0,21.0,23.0,25.0,27.0,30.0,27.0,22.0,16.0,15.0,16.0,18.0,20.0,24.0,26.0,26.0,31.0,33.0,34.0,25.0,21.0,18.0,19.0,19.0,19.0,20.0,20.0,23.0,26.0,30.0,Atlantic City,NJ,New Jersey,39.3797,-74.4527,38487,1381.0,POINT (-74.4527 39.3797)
394412,181,Bremerton,msa,WA,10.0,7.0,7.0,7.0,7.0,9.0,11.0,14.0,17.0,18.0,17.0,14.0,10.0,7.0,6.0,7.0,7.0,8.0,9.0,9.0,9.0,11.0,11.0,9.0,6.0,5.0,5.0,5.0,5.0,5.0,6.0,6.0,6.0,6.0,5.0,5.0,5.0,5.0,5.0,5.0,6.0,6.0,7.0,7.0,7.0,7.0,7.0,6.0,6.0,6.0,6.0,6.0,8.0,,,,,24.0,28.0,23.0,15.0,8.0,7.0,7.0,7.0,8.0,11.0,14.0,17.0,18.0,24.0,Bremerton,WA,Washington,47.5436,-122.7121,226805,597.3,POINT (-122.7121 47.5436)
395065,183,Santa Cruz,msa,CA,17.0,15.0,14.0,14.0,15.0,16.0,19.0,24.0,29.0,36.0,47.0,49.0,38.0,22.0,17.0,18.0,21.0,25.0,30.0,32.0,34.0,39.0,51.0,42.0,30.0,13.0,15.0,18.0,18.0,16.0,14.0,12.0,12.0,12.0,16.0,15.0,14.0,10.0,11.0,11.0,12.0,13.0,15.0,15.0,15.0,16.0,17.0,16.0,13.0,11.0,12.0,14.0,19.0,20.0,22.0,23.0,27.0,30.0,34.0,30.0,25.0,17.0,16.0,14.0,15.0,16.0,16.0,18.0,23.0,32.0,33.0,Santa Cruz,CA,California,36.9789,-122.0346,167835,1859.8,POINT (-122.0346 36.9789)
394572,184,Erie,msa,PA,88.0,73.0,48.0,38.0,34.0,39.0,45.0,52.0,64.0,77.0,89.0,90.0,87.0,68.0,47.0,30.0,27.0,33.0,39.0,47.0,54.0,64.0,72.0,67.0,57.0,42.0,31.0,22.0,15.0,14.0,13.0,13.0,13.0,17.0,25.0,23.0,17.0,6.0,5.0,5.0,6.0,7.0,8.0,8.0,10.0,11.0,12.0,10.0,7.0,6.0,6.0,6.0,6.0,8.0,9.0,11.0,13.0,16.0,17.0,14.0,9.0,7.0,6.0,6.0,6.0,6.0,7.0,8.0,10.0,18.0,19.0,Erie,PA,Pennsylvania,42.1167,-80.0733,185556,1913.7,POINT (-80.0733 42.1167)
394924,185,Norwich,msa,CT,47.0,25.0,22.0,24.0,26.0,35.0,42.0,50.0,52.0,59.0,65.0,57.0,45.0,29.0,24.0,21.0,26.0,35.0,38.0,40.0,35.0,53.0,63.0,63.0,41.0,25.0,19.0,17.0,14.0,11.0,11.0,10.0,12.0,13.0,22.0,21.0,17.0,6.0,5.0,6.0,6.0,8.0,9.0,11.0,11.0,12.0,10.0,9.0,6.0,5.0,5.0,6.0,6.0,7.0,8.0,8.0,10.0,11.0,11.0,10.0,7.0,6.0,5.0,5.0,7.0,8.0,8.0,7.0,7.0,9.0,10.0,Norwich,CT,Connecticut,41.5495,-72.0882,166885,551.1,POINT (-72.0882 41.5495)
394323,186,Amarillo,msa,TX,53.0,39.0,30.0,24.0,27.0,31.0,39.0,40.0,47.0,57.0,64.0,60.0,50.0,39.0,35.0,32.0,33.0,41.0,41.0,44.0,44.0,49.0,50.0,47.0,42.0,37.0,30.0,26.0,22.0,20.0,18.0,17.0,19.0,21.0,20.0,19.0,15.0,12.0,7.0,6.0,6.0,6.0,7.0,7.0,8.0,9.0,9.0,8.0,6.0,5.0,5.0,6.0,7.0,8.0,8.0,10.0,13.0,15.0,17.0,16.0,15.0,12.0,11.0,11.0,12.0,13.0,16.0,21.0,23.0,27.0,34.0,Amarillo,TX,Texas,35.1984,-101.8316,205903,750.2,POINT (-101.8316 35.1984)
394772,187,Laredo,msa,TX,,,,,,,,,,,,,,,,,,,,,,,,,,,,,,,,,,,,,,,,,,,,,,,,,,,,,,,,,,,,,,34.0,49.0,52.0,46.0,44.0,46.0,50.0,49.0,51.0,50.0,Laredo,TX,Texas,27.5625,-99.4874,255293,922.7,POINT (-99.4874 27.5625)
395171,188,Tuscaloosa,msa,AL,35.0,25.0,26.0,24.0,26.0,30.0,34.0,39.0,43.0,48.0,50.0,43.0,36.0,28.0,28.0,28.0,30.0,30.0,32.0,34.0,37.0,46.0,50.0,45.0,35.0,24.0,21.0,17.0,14.0,14.0,15.0,16.0,17.0,19.0,22.0,19.0,16.0,10.0,9.0,7.0,6.0,8.0,10.0,12.0,12.0,13.0,14.0,12.0,9.0,6.0,6.0,6.0,8.0,14.0,20.0,21.0,19.0,19.0,21.0,20.0,16.0,13.0,12.0,12.0,11.0,13.0,14.0,16.0,20.0,26.0,27.0,Tuscaloosa,AL,Alabama,33.2348,-87.5268,164414,660.0,POINT (-87.5268 33.2348)
394483,189,College Station,msa,TX,55.0,41.0,35.0,42.0,41.0,44.0,48.0,59.0,68.0,65.0,66.0,69.0,67.0,56.0,45.0,47.0,46.0,50.0,55.0,63.0,66.0,70.0,70.0,56.0,42.0,36.0,41.0,46.0,40.0,36.0,34.0,41.0,47.0,47.0,48.0,39.0,33.0,21.0,16.0,13.0,13.0,14.0,14.0,16.0,15.0,17.0,15.0,14.0,10.0,10.0,9.0,10.0,11.0,17.0,19.0,20.0,18.0,20.0,24.0,22.0,18.0,13.0,12.0,13.0,14.0,19.0,24.0,28.0,31.0,37.0,39.0,College Station,TX,Texas,30.5852,-96.2959,213177,909.0,POINT (-96.2959 30.5852)
394732,190,Kalamazoo,msa,MI,25.0,14.0,9.0,9.0,11.0,12.0,15.0,17.0,23.0,29.0,38.0,41.0,34.0,22.0,12.0,10.0,10.0,12.0,14.0,19.0,29.0,37.0,44.0,39.0,28.0,19.0,13.0,17.0,13.0,12.0,7.0,6.0,7.0,8.0,10.0,9.0,7.0,5.0,4.0,5.0,5.0,6.0,6.0,7.0,8.0,9.0,8.0,6.0,5.0,5.0,5.0,5.0,6.0,7.0,7.0,8.0,10.0,13.0,15.0,14.0,10.0,6.0,5.0,5.0,5.0,6.0,7.0,8.0,8.0,13.0,16.0,Kalamazoo,MI,Michigan,42.2749,-85.5882,200838,1146.8,POINT (-85.5882 42.2749)
394811,191,Lynchburg,msa,VA,,,,,,,,,47.0,67.0,70.0,82.0,64.0,53.0,37.0,39.0,42.0,44.0,48.0,54.0,48.0,51.0,53.0,62.0,49.0,36.0,22.0,24.0,24.0,25.0,25.0,21.0,19.0,18.0,17.0,15.0,8.0,6.0,6.0,7.0,7.0,6.0,8.0,9.0,10.0,10.0,9.0,7.0,5.0,4.0,5.0,5.0,6.0,8.0,9.0,10.0,10.0,13.0,13.0,12.0,8.0,6.0,6.0,6.0,7.0,9.0,11.0,11.0,14.0,18.0,22.0,Lynchburg,VA,Virginia,37.4003,-79.1909,128849,624.1,POINT (-79.1909 37.4003)
394455,192,Charleston,msa,WV,,,,,,,,,,,,,,,,,,,,,,,,,,,62.0,49.0,36.0,24.0,30.0,36.0,39.0,29.0,35.0,37.0,32.0,21.0,13.0,10.0,10.0,11.0,10.0,12.0,16.0,20.0,26.0,24.0,19.0,11.0,8.0,7.0,8.0,10.0,14.0,17.0,19.0,20.0,23.0,23.0,21.0,15.0,12.0,9.0,11.0,14.0,14.0,14.0,17.0,24.0,28.0,Charleston,WV,West Virginia,38.3484,-81.6322,129754,594.8,POINT (-81.6322 38.3484)
395240,193,Yakima,msa,WA,32.0,15.0,11.0,11.0,12.0,12.0,13.0,12.0,13.0,17.0,22.0,21.0,17.0,12.0,11.0,10.0,12.0,14.0,15.0,14.0,15.0,19.0,27.0,25.0,19.0,11.0,11.0,12.0,10.0,8.0,7.0,7.0,8.0,11.0,11.0,11.0,7.0,7.0,6.0,6.0,6.0,7.0,8.0,9.0,11.0,13.0,14.0,12.0,9.0,7.0,7.0,7.0,8.0,10.0,14.0,18.0,21.0,28.0,40.0,42.0,34.0,18.0,14.0,12.0,12.0,13.0,15.0,18.0,20.0,26.0,31.0,Yakima,WA,Washington,46.5923,-120.5496,132354,1343.7,POINT (-120.5496 46.5923)
394585,194,Fargo,msa,ND,,,,,,,,,,,,,,,,,,,,,,,,,,,,,,,,,,,,,,,,,,,,,,,,,,,,,,,,,,,,45.0,42.0,32.0,19.0,20.0,18.0,20.0,22.0,25.0,29.0,35.0,48.0,Fargo,ND,North Dakota,46.8651,-96.8292,228364,968.3,POINT (-96.8292 46.8651)
394387,195,Binghamton,msa,NY,89.0,71.0,52.0,39.0,41.0,44.0,48.0,56.0,67.0,76.0,79.0,86.0,86.0,77.0,54.0,40.0,41.0,47.0,57.0,53.0,60.0,70.0,81.0,88.0,74.0,94.0,79.0,71.0,36.0,29.0,33.0,31.0,29.0,31.0,39.0,36.0,25.0,14.0,9.0,8.0,9.0,11.0,13.0,14.0,14.0,15.0,20.0,21.0,17.0,10.0,8.0,8.0,9.0,11.0,13.0,15.0,17.0,22.0,22.0,19.0,14.0,12.0,10.0,9.0,8.0,9.0,11.0,12.0,14.0,17.0,18.0,Binghamton,NY,New York,42.1014,-75.9093,156375,1754.4,POINT (-75.9093 42.1014)
394609,196,Fort Smith,msa,AR,70.0,57.0,50.0,43.0,39.0,42.0,48.0,54.0,57.0,61.0,72.0,71.0,69.0,59.0,54.0,51.0,49.0,48.0,45.0,46.0,54.0,63.0,71.0,63.0,56.0,44.0,46.0,37.0,32.0,25.0,24.0,26.0,23.0,24.0,24.0,25.0,18.0,13.0,9.0,7.0,7.0,8.0,10.0,13.0,14.0,14.0,14.0,12.0,12.0,9.0,9.0,10.0,11.0,12.0,12.0,15.0,20.0,26.0,32.0,32.0,25.0,18.0,14.0,14.0,14.0,16.0,18.0,20.0,23.0,26.0,36.0,Fort Smith,AR,Arkansas,35.3495,-94.3695,126452,537.3,POINT (-94.3695 35.3495)
845160,198,Prescott Valley,msa,AZ,30.0,19.0,19.0,18.0,20.0,23.0,28.0,30.0,34.0,38.0,44.0,40.0,33.0,26.0,26.0,29.0,31.0,35.0,32.0,32.0,35.0,43.0,45.0,39.0,28.0,21.0,22.0,28.0,30.0,25.0,18.0,12.0,9.0,8.0,8.0,8.0,6.0,6.0,6.0,6.0,7.0,8.0,9.0,10.0,11.0,10.0,9.0,7.0,6.0,6.0,7.0,10.0,14.0,22.0,26.0,31.0,37.0,40.0,48.0,43.0,38.0,24.0,19.0,18.0,18.0,21.0,22.0,28.0,30.0,39.0,43.0,Prescott Valley,AZ,Arizona,34.598,-112.3185,93923,448.6,POINT (-112.3185 34.598)
395161,199,Topeka,msa,KS,57.0,39.0,23.0,19.0,25.0,29.0,34.0,38.0,45.0,52.0,67.0,55.0,47.0,25.0,23.0,22.0,22.0,31.0,28.0,37.0,43.0,55.0,55.0,44.0,31.0,22.0,19.0,16.0,17.0,16.0,18.0,17.0,17.0,17.0,16.0,17.0,13.0,11.0,8.0,8.0,13.0,12.0,11.0,7.0,7.0,7.0,7.0,6.0,10.0,10.0,10.0,4.0,5.0,6.0,6.0,7.0,8.0,13.0,16.0,14.0,9.0,5.0,5.0,5.0,6.0,6.0,7.0,8.0,11.0,16.0,20.0,Topeka,KS,Kansas,39.0346,-95.6955,148185,792.2,POINT (-95.6955 39.0346)
394813,200,Macon,msa,GA,58.0,35.0,27.0,28.0,27.0,31.0,28.0,31.0,30.0,31.0,44.0,40.0,36.0,20.0,20.0,25.0,25.0,29.0,34.0,37.0,43.0,42.0,46.0,37.0,31.0,26.0,27.0,24.0,22.0,19.0,16.0,13.0,12.0,12.0,14.0,12.0,10.0,8.0,7.0,7.0,7.0,8.0,9.0,10.0,11.0,12.0,12.0,11.0,8.0,8.0,7.0,8.0,10.0,11.0,12.0,12.0,15.0,19.0,25.0,25.0,20.0,13.0,13.0,15.0,14.0,14.0,14.0,16.0,16.0,24.0,30.0,Macon,GA,Georgia,32.8065,-83.6974,156554,242.4,POINT (-83.6974 32.8065)
395174,201,Tyler,msa,TX,46.0,31.0,27.0,24.0,28.0,32.0,38.0,42.0,43.0,44.0,46.0,48.0,39.0,28.0,19.0,19.0,21.0,21.0,24.0,28.0,29.0,30.0,31.0,29.0,24.0,22.0,26.0,28.0,28.0,30.0,32.0,36.0,34.0,33.0,31.0,28.0,26.0,22.0,21.0,22.0,22.0,24.0,25.0,21.0,19.0,16.0,16.0,13.0,9.0,8.0,7.0,8.0,10.0,12.0,15.0,19.0,22.0,25.0,29.0,32.0,27.0,20.0,18.0,18.0,19.0,19.0,22.0,23.0,28.0,35.0,49.0,Tyler,TX,Texas,32.3184,-95.3062,138024,711.1,POINT (-95.3062 32.3184)
394519,203,Daphne,msa,AL,,,,,,,,,,,,,,,,,,,,,,,,,,,,,,,,,,,,,,,,,,,,,,,,,,,,,,,,,,,,,,,,,,,,,,,54.0,Daphne,AL,Alabama,30.6263,-87.8816,27861,563.8,POINT (-87.8816 30.6263)
394378,205,Bellingham,msa,WA,15.0,9.0,9.0,9.0,9.0,12.0,17.0,20.0,21.0,27.0,34.0,34.0,22.0,12.0,8.0,9.0,10.0,12.0,14.0,15.0,17.0,25.0,29.0,25.0,15.0,9.0,9.0,9.0,8.0,7.0,7.0,8.0,8.0,9.0,8.0,8.0,6.0,6.0,6.0,6.0,6.0,7.0,7.0,7.0,7.0,8.0,7.0,7.0,6.0,6.0,6.0,6.0,8.0,13.0,18.0,,,29.0,30.0,25.0,17.0,10.0,8.0,8.0,8.0,10.0,12.0,15.0,17.0,24.0,29.0,Bellingham,WA,Washington,48.7548,-122.469,129880,1250.8,POINT (-122.469 48.7548)
394429,206,Burlington,msa,VT,48.0,30.0,20.0,17.0,17.0,22.0,24.0,32.0,37.0,41.0,57.0,53.0,43.0,19.0,13.0,15.0,14.0,21.0,27.0,29.0,42.0,52.0,61.0,55.0,40.0,37.0,23.0,20.0,10.0,9.0,21.0,23.0,24.0,17.0,19.0,17.0,11.0,6.0,6.0,6.0,6.0,7.0,7.0,7.0,7.0,7.0,7.0,6.0,6.0,6.0,6.0,6.0,6.0,7.0,7.0,8.0,9.0,10.0,11.0,10.0,8.0,6.0,6.0,6.0,7.0,7.0,8.0,9.0,9.0,11.0,12.0,Burlington,VT,Vermont,44.4876,-73.2316,123307,1673.1,POINT (-73.2316 44.4876)
395030,207,Rochester,msa,MN,27.0,18.0,16.0,17.0,18.0,21.0,23.0,27.0,33.0,41.0,51.0,45.0,33.0,17.0,16.0,16.0,18.0,21.0,24.0,26.0,31.0,40.0,48.0,44.0,32.0,19.0,16.0,16.0,17.0,15.0,16.0,16.0,19.0,21.0,21.0,17.0,12.0,7.0,6.0,6.0,6.0,8.0,10.0,13.0,16.0,19.0,19.0,15.0,9.0,6.0,6.0,8.0,11.0,16.0,18.0,22.0,26.0,31.0,34.0,28.0,21.0,12.0,9.0,9.0,11.0,12.0,18.0,22.0,28.0,31.0,37.0,Rochester,MN,Minnesota,44.0154,-92.478,121870,836.8,POINT (-92.478 44.0154)
753895,208,Lafayette,msa,IN,,,,,,,,,,,,,,,,,,,,,,,,,,,,,,,12.0,12.0,10.0,13.0,19.0,16.0,9.0,3.0,3.0,3.0,4.0,4.0,5.0,6.0,6.0,7.0,7.0,5.0,4.0,3.0,3.0,4.0,6.0,7.0,7.0,7.0,7.0,9.0,10.0,9.0,6.0,5.0,4.0,4.0,4.0,5.0,5.0,7.0,9.0,14.0,15.0,Lafayette,IN,Indiana,40.3991,-86.8593,160543,930.9,POINT (-86.8593 40.3991)
394454,209,Champaign,msa,IL,78.0,57.0,30.0,25.0,27.0,32.0,44.0,54.0,60.0,63.0,76.0,75.0,65.0,40.0,29.0,28.0,29.0,33.0,37.0,42.0,50.0,57.0,72.0,66.0,51.0,36.0,31.0,29.0,21.0,19.0,22.0,24.0,24.0,26.0,30.0,32.0,26.0,14.0,7.0,5.0,6.0,8.0,10.0,11.0,14.0,15.0,14.0,11.0,8.0,6.0,5.0,5.0,6.0,9.0,11.0,15.0,23.0,29.0,32.0,24.0,15.0,7.0,5.0,5.0,5.0,6.0,7.0,10.0,12.0,13.0,14.0,Champaign,IL,Illinois,40.1142,-88.2737,150179,1488.4,POINT (-88.2737 40.1142)
394848,210,Medford,msa,OR,22.0,16.0,16.0,17.0,19.0,26.0,30.0,30.0,31.0,37.0,49.0,44.0,39.0,28.0,25.0,21.0,23.0,30.0,37.0,34.0,41.0,42.0,59.0,45.0,34.0,22.0,23.0,25.0,17.0,14.0,12.0,10.0,8.0,6.0,6.0,6.0,6.0,6.0,6.0,6.0,7.0,8.0,9.0,11.0,12.0,16.0,16.0,14.0,9.0,7.0,7.0,9.0,14.0,19.0,24.0,27.0,29.0,40.0,46.0,41.0,24.0,13.0,12.0,14.0,18.0,21.0,22.0,23.0,29.0,33.0,35.0,Medford,OR,Oregon,42.3372,-122.854,168959,1191.6,POINT (-122.854 42.3372)
845164,211,Lebanon,msa,NH,75.0,56.0,38.0,30.0,29.0,36.0,60.0,69.0,82.0,84.0,96.0,90.0,77.0,69.0,62.0,62.0,53.0,49.0,48.0,66.0,90.0,102.0,99.0,83.0,65.0,52.0,50.0,61.0,52.0,40.0,32.0,32.0,31.0,22.0,23.0,21.0,15.0,8.0,7.0,7.0,8.0,9.0,11.0,11.0,11.0,13.0,13.0,12.0,9.0,7.0,7.0,8.0,9.0,10.0,12.0,13.0,14.0,19.0,20.0,19.0,12.0,9.0,8.0,7.0,8.0,9.0,10.0,12.0,15.0,20.0,22.0,Lebanon,NH,New Hampshire,43.6353,-72.2531,14515,139.0,POINT (-72.2531 43.6353)
394459,212,Charlottesville,msa,VA,40.0,27.0,21.0,28.0,31.0,42.0,41.0,45.0,53.0,59.0,67.0,59.0,48.0,32.0,16.0,21.0,30.0,36.0,45.0,49.0,53.0,53.0,54.0,50.0,36.0,26.0,24.0,29.0,29.0,31.0,28.0,25.0,21.0,25.0,28.0,23.0,14.0,6.0,6.0,6.0,6.0,7.0,8.0,8.0,7.0,9.0,8.0,7.0,5.0,5.0,5.0,6.0,7.0,8.0,9.0,9.0,11.0,18.0,21.0,19.0,10.0,6.0,6.0,6.0,7.0,9.0,9.0,10.0,14.0,25.0,26.0,Charlottesville,VA,Virginia,38.0375,-78.4855,103760,1744.5,POINT (-78.4855 38.0375)
394763,213,Lake Charles,msa,LA,69.0,56.0,53.0,42.0,40.0,39.0,44.0,48.0,51.0,55.0,61.0,66.0,63.0,55.0,47.0,44.0,42.0,40.0,42.0,45.0,50.0,54.0,61.0,67.0,64.0,62.0,63.0,56.0,49.0,38.0,51.0,65.0,65.0,48.0,29.0,21.0,19.0,15.0,12.0,9.0,10.0,9.0,11.0,11.0,13.0,16.0,20.0,21.0,22.0,18.0,17.0,17.0,18.0,22.0,27.0,36.0,45.0,54.0,64.0,69.0,63.0,54.0,42.0,43.0,44.0,47.0,46.0,46.0,52.0,58.0,63.0,Lake Charles,LA,Louisiana,30.201,-93.2111,151109,670.5,POINT (-93.2111 30.201)
394773,214,Las Cruces,msa,NM,67.0,50.0,35.0,32.0,30.0,29.0,30.0,36.0,39.0,55.0,57.0,63.0,53.0,46.0,33.0,27.0,23.0,27.0,24.0,25.0,26.0,35.0,43.0,43.0,34.0,22.0,19.0,16.0,13.0,10.0,8.0,9.0,8.0,13.0,12.0,12.0,7.0,5.0,4.0,4.0,4.0,5.0,6.0,7.0,7.0,8.0,7.0,7.0,5.0,5.0,5.0,5.0,6.0,7.0,8.0,10.0,14.0,16.0,20.0,19.0,16.0,11.0,8.0,10.0,9.0,11.0,11.0,11.0,16.0,24.0,38.0,Las Cruces,NM,New Mexico,32.3265,-106.7893,140915,558.4,POINT (-106.7893 32.3265)
394464,215,Chico,msa,CA,19.0,13.0,13.0,15.0,17.0,19.0,17.0,20.0,26.0,24.0,18.0,9.0,9.0,9.0,9.0,10.0,13.0,17.0,20.0,24.0,28.0,30.0,35.0,27.0,21.0,13.0,14.0,15.0,13.0,11.0,10.0,10.0,10.0,14.0,15.0,15.0,9.0,8.0,7.0,7.0,8.0,9.0,9.0,10.0,11.0,12.0,12.0,11.0,9.0,8.0,8.0,9.0,12.0,17.0,20.0,23.0,25.0,33.0,42.0,40.0,33.0,20.0,16.0,12.0,13.0,15.0,17.0,19.0,21.0,31.0,33.0,Chico,CA,California,39.7578,-121.8161,110001,1152.0,POINT (-121.8161 39.7578)
394681,216,Hilton Head Island,msa,SC,55.0,40.0,41.0,43.0,46.0,47.0,49.0,50.0,55.0,60.0,64.0,64.0,59.0,53.0,46.0,48.0,47.0,50.0,53.0,51.0,50.0,47.0,57.0,54.0,46.0,35.0,39.0,47.0,48.0,40.0,36.0,33.0,33.0,31.0,32.0,25.0,18.0,9.0,7.0,7.0,7.0,7.0,7.0,8.0,9.0,9.0,9.0,8.0,6.0,5.0,5.0,7.0,8.0,11.0,13.0,15.0,16.0,22.0,26.0,28.0,21.0,16.0,14.0,14.0,14.0,13.0,15.0,18.0,23.0,28.0,33.0,Hilton Head Island,SC,South Carolina,32.1896,-80.7499,37708,352.1,POINT (-80.7499 32.1896)
394346,217,Athens,msa,GA,33.0,26.0,27.0,32.0,30.0,33.0,30.0,33.0,35.0,46.0,48.0,43.0,30.0,26.0,27.0,26.0,26.0,27.0,32.0,33.0,40.0,40.0,44.0,39.0,35.0,27.0,26.0,27.0,27.0,26.0,25.0,25.0,27.0,28.0,24.0,17.0,11.0,7.0,6.0,6.0,6.0,7.0,8.0,9.0,9.0,9.0,8.0,7.0,6.0,6.0,6.0,7.0,10.0,13.0,17.0,18.0,21.0,24.0,28.0,26.0,20.0,14.0,13.0,12.0,15.0,15.0,17.0,16.0,21.0,21.0,23.0,Athens,GA,Georgia,33.9508,-83.3689,143173,420.0,POINT (-83.3689 33.9508)
394765,218,Lake Havasu City,msa,AZ,42.0,38.0,31.0,29.0,32.0,30.0,27.0,19.0,24.0,28.0,35.0,33.0,34.0,32.0,33.0,32.0,29.0,25.0,22.0,23.0,25.0,30.0,35.0,33.0,27.0,21.0,22.0,24.0,21.0,16.0,10.0,10.0,10.0,12.0,11.0,10.0,6.0,5.0,5.0,6.0,8.0,9.0,11.0,12.0,14.0,19.0,18.0,14.0,8.0,7.0,11.0,13.0,17.0,20.0,25.0,31.0,34.0,41.0,46.0,51.0,46.0,37.0,28.0,26.0,24.0,24.0,22.0,22.0,23.0,27.0,38.0,Lake Havasu City,AZ,Arizona,34.5006,-114.3113,57294,477.4,POINT (-114.3113 34.5006)
394485,219,Columbia,msa,MO,,,,,,,,,,,,,,,,,,,,,,,,,,,,,,,,,,,,,,,,,,,,,,,,,,,,,,,,,,,,,,,,,,,,,22.0,20.0,27.0,Columbia,MO,Missouri,38.9472,-92.3268,142637,725.2,POINT (-92.3268 38.9472)
395114,220,Springfield,msa,IL,69.0,49.0,29.0,32.0,32.0,42.0,50.0,54.0,69.0,73.0,87.0,81.0,75.0,52.0,34.0,31.0,33.0,41.0,45.0,51.0,55.0,63.0,68.0,66.0,49.0,36.0,24.0,20.0,19.0,16.0,16.0,15.0,14.0,19.0,23.0,23.0,18.0,10.0,7.0,5.0,6.0,7.0,7.0,8.0,8.0,8.0,7.0,7.0,6.0,5.0,4.0,4.0,5.0,6.0,6.0,6.0,7.0,9.0,12.0,11.0,9.0,5.0,4.0,4.0,4.0,5.0,5.0,5.0,6.0,8.0,10.0,Springfield,IL,Illinois,39.7709,-89.654,159671,721.0,POINT (-89.654 39.7709)
394691,221,Houma,msa,LA,91.0,83.0,73.0,58.0,54.0,54.0,56.0,71.0,84.0,97.0,91.0,89.0,75.0,76.0,75.0,85.0,81.0,76.0,75.0,79.0,75.0,81.0,77.0,71.0,56.0,52.0,66.0,74.0,65.0,54.0,48.0,50.0,44.0,45.0,44.0,42.0,35.0,27.0,21.0,15.0,12.0,18.0,26.0,46.0,38.0,30.0,9.0,9.0,8.0,7.0,7.0,9.0,10.0,13.0,15.0,19.0,23.0,31.0,37.0,38.0,30.0,23.0,19.0,21.0,29.0,33.0,31.0,35.0,42.0,55.0,66.0,Houma,LA,Louisiana,29.58,-90.7059,143160,883.2,POINT (-90.7059 29.58)
394872,222,Monroe,msa,LA,,,,,,,,,,,,,,,,,,,,,,,,,,,,,,,,,,,,,,,,,,,,,,,,,,,,,,,,,,,,,,,,,51.0,53.0,24.0,20.0,18.0,21.0,26.0,Monroe,LA,Louisiana,32.5185,-92.0774,116927,620.2,POINT (-92.0774 32.5185)
394565,223,Elkhart,msa,IN,,,,,,,,,,,,,,,,,,,,,,,,,,,43.0,45.0,16.0,9.0,12.0,14.0,17.0,17.0,22.0,18.0,13.0,5.0,5.0,5.0,5.0,5.0,6.0,6.0,6.0,6.0,6.0,5.0,5.0,4.0,4.0,5.0,5.0,6.0,7.0,8.0,10.0,12.0,14.0,12.0,10.0,6.0,5.0,5.0,6.0,8.0,11.0,14.0,18.0,22.0,30.0,Elkhart,IN,Indiana,41.6916,-85.9627,149423,752.7,POINT (-85.9627 41.6916)
394726,224,Johnson City,msa,TN,69.0,49.0,28.0,23.0,21.0,21.0,25.0,28.0,31.0,33.0,43.0,43.0,43.0,30.0,25.0,17.0,16.0,17.0,18.0,19.0,20.0,22.0,31.0,33.0,30.0,20.0,14.0,13.0,10.0,10.0,8.0,9.0,9.0,10.0,9.0,7.0,6.0,4.0,4.0,4.0,5.0,5.0,6.0,6.0,6.0,6.0,6.0,5.0,4.0,4.0,4.0,5.0,5.0,6.0,8.0,8.0,8.0,8.0,12.0,11.0,10.0,6.0,6.0,7.0,6.0,6.0,7.0,8.0,10.0,13.0,16.0,Johnson City,TN,Tennessee,36.3406,-82.3806,131718,628.5,POINT (-82.3806 36.3406)
395247,225,Yuma,msa,AZ,,,,,,,,,,,,,,,,,,,,,,,,,,,,,,,23.0,22.0,15.0,10.0,8.0,9.0,12.0,12.0,9.0,5.0,5.0,7.0,9.0,12.0,11.0,10.0,8.0,8.0,7.0,8.0,8.0,10.0,12.0,17.0,23.0,28.0,30.0,31.0,34.0,34.0,32.0,25.0,19.0,13.0,10.0,12.0,14.0,18.0,18.0,32.0,40.0,Yuma,AZ,Arizona,32.5995,-114.5491,135389,307.8,POINT (-114.5491 32.5995)
394623,226,Gainesville,msa,GA,27.0,18.0,17.0,18.0,20.0,24.0,25.0,30.0,30.0,35.0,37.0,33.0,30.0,22.0,21.0,19.0,20.0,26.0,26.0,31.0,30.0,40.0,44.0,46.0,35.0,25.0,22.0,26.0,29.0,29.0,24.0,19.0,15.0,14.0,13.0,10.0,8.0,6.0,6.0,7.0,7.0,7.0,9.0,10.0,11.0,13.0,13.0,11.0,8.0,7.0,8.0,8.0,11.0,14.0,19.0,23.0,25.0,28.0,34.0,31.0,28.0,17.0,15.0,14.0,16.0,18.0,20.0,19.0,25.0,33.0,37.0,Gainesville,GA,Georgia,34.2902,-83.8294,175569,493.1,POINT (-83.8294 34.2902)
394716,227,Jacksonville,msa,NC,33.0,26.0,24.0,28.0,30.0,32.0,34.0,40.0,38.0,32.0,22.0,18.0,13.0,9.0,8.0,10.0,13.0,18.0,23.0,25.0,26.0,27.0,34.0,33.0,26.0,19.0,15.0,14.0,11.0,9.0,8.0,6.0,6.0,5.0,5.0,4.0,3.0,3.0,3.0,4.0,4.0,4.0,4.0,4.0,4.0,5.0,5.0,4.0,4.0,4.0,4.0,4.0,5.0,5.0,6.0,6.0,7.0,8.0,8.0,8.0,7.0,6.0,5.0,5.0,7.0,7.0,10.0,11.0,14.0,17.0,19.0,Jacksonville,NC,North Carolina,34.7289,-77.3941,111830,568.9,POINT (-77.3941 34.7289)
394597,228,Florence,msa,SC,,,,,,,,,,,,,,,,,,,,,,,,,,,,,,,,,,47.0,35.0,24.0,14.0,8.0,6.0,6.0,6.0,6.0,9.0,9.0,10.0,9.0,10.0,9.0,8.0,7.0,6.0,7.0,7.0,9.0,10.0,14.0,14.0,19.0,22.0,20.0,14.0,8.0,9.0,8.0,10.0,11.0,14.0,14.0,16.0,20.0,21.0,Florence,SC,South Carolina,34.178,-79.7898,90419,659.0,POINT (-79.7898 34.178)
394680,229,Hilo,msa,HI,53.0,46.0,37.0,38.0,38.0,35.0,38.0,42.0,42.0,41.0,44.0,46.0,50.0,51.0,54.0,52.0,51.0,48.0,51.0,48.0,47.0,41.0,46.0,52.0,53.0,49.0,47.0,50.0,52.0,46.0,40.0,31.0,31.0,28.0,32.0,30.0,26.0,18.0,13.0,10.0,10.0,9.0,10.0,10.0,11.0,12.0,12.0,12.0,10.0,10.0,10.0,11.0,14.0,16.0,21.0,22.0,24.0,23.0,32.0,34.0,36.0,31.0,26.0,21.0,20.0,21.0,21.0,20.0,20.0,22.0,24.0,Hilo,HI,Hawaii,19.6883,-155.0863,47627,343.0,POINT (-155.0863 19.6883)
395118,230,St. Cloud,msa,MN,42.0,32.0,27.0,23.0,22.0,26.0,29.0,33.0,37.0,41.0,48.0,47.0,41.0,29.0,23.0,21.0,23.0,25.0,30.0,35.0,39.0,49.0,56.0,52.0,37.0,22.0,20.0,19.0,20.0,20.0,21.0,21.0,23.0,27.0,29.0,25.0,17.0,10.0,8.0,8.0,10.0,12.0,13.0,16.0,19.0,23.0,21.0,16.0,10.0,7.0,6.0,8.0,11.0,15.0,17.0,18.0,21.0,28.0,36.0,32.0,24.0,14.0,11.0,10.0,12.0,14.0,16.0,16.0,21.0,27.0,34.0,St. Cloud,MN,Minnesota,45.534,-94.1718,116649,662.4,POINT (-94.1718 45.534)
395011,231,Racine,msa,WI,,,,,,,,,,,,,,,,,,,,,,,,,,,,,,,,,,,,,,,7.0,12.0,18.0,22.0,24.0,25.0,22.0,31.0,35.0,34.0,19.0,6.0,7.0,10.0,13.0,20.0,23.0,29.0,30.0,33.0,32.0,29.0,22.0,14.0,8.0,7.0,9.0,12.0,13.0,12.0,10.0,19.0,25.0,Racine,WI,Wisconsin,42.7274,-87.8135,132006,1932.5,POINT (-87.8135 42.7274)
394380,232,Bend,msa,OR,33.0,22.0,21.0,21.0,23.0,30.0,39.0,44.0,48.0,55.0,59.0,51.0,39.0,27.0,22.0,18.0,20.0,27.0,35.0,39.0,46.0,51.0,58.0,46.0,30.0,16.0,16.0,19.0,18.0,13.0,9.0,7.0,7.0,7.0,6.0,5.0,5.0,5.0,5.0,5.0,6.0,7.0,9.0,12.0,15.0,16.0,14.0,9.0,5.0,5.0,6.0,8.0,13.0,19.0,27.0,29.0,35.0,40.0,49.0,42.0,28.0,14.0,12.0,12.0,16.0,18.0,23.0,25.0,31.0,37.0,44.0,Bend,OR,Oregon,44.0563,-121.3095,111774,1108.2,POINT (-121.3095 44.0563)
395047,233,Saginaw,msa,MI,43.0,26.0,19.0,19.0,19.0,20.0,25.0,29.0,36.0,40.0,50.0,54.0,47.0,31.0,18.0,15.0,18.0,21.0,23.0,25.0,26.0,38.0,46.0,46.0,35.0,31.0,25.0,21.0,7.0,6.0,6.0,7.0,9.0,13.0,13.0,11.0,7.0,5.0,5.0,5.0,6.0,7.0,9.0,9.0,12.0,14.0,19.0,18.0,14.0,9.0,7.0,7.0,8.0,9.0,13.0,14.0,18.0,21.0,24.0,23.0,19.0,13.0,10.0,7.0,8.0,9.0,10.0,11.0,13.0,19.0,29.0,Saginaw,MI,Michigan,43.4199,-83.9501,115442,1000.9,POINT (-83.9501 43.4199)
395202,234,Warner Robins,msa,GA,38.0,24.0,16.0,15.0,18.0,19.0,23.0,24.0,29.0,36.0,37.0,30.0,18.0,14.0,15.0,16.0,16.0,18.0,20.0,20.0,22.0,22.0,26.0,24.0,21.0,15.0,14.0,13.0,11.0,9.0,8.0,8.0,8.0,10.0,10.0,8.0,5.0,5.0,4.0,5.0,5.0,5.0,5.0,6.0,6.0,6.0,6.0,6.0,6.0,6.0,5.0,6.0,7.0,7.0,7.0,7.0,10.0,13.0,14.0,12.0,8.0,8.0,8.0,8.0,8.0,7.0,10.0,11.0,15.0,19.0,20.0,Warner Robins,GA,Georgia,32.5961,-83.6527,146790,819.4,POINT (-83.6527 32.5961)
395151,235,Terre Haute,msa,IN,49.0,31.0,21.0,18.0,21.0,31.0,36.0,43.0,50.0,62.0,77.0,73.0,72.0,51.0,41.0,24.0,22.0,24.0,30.0,37.0,36.0,44.0,58.0,68.0,56.0,50.0,43.0,39.0,20.0,13.0,18.0,21.0,23.0,22.0,22.0,21.0,14.0,8.0,5.0,5.0,6.0,7.0,8.0,10.0,11.0,13.0,12.0,12.0,9.0,7.0,6.0,6.0,7.0,9.0,10.0,11.0,14.0,19.0,22.0,22.0,17.0,13.0,7.0,7.0,9.0,11.0,14.0,15.0,17.0,16.0,28.0,Terre Haute,IN,Indiana,39.466,-87.3751,80567,650.7,POINT (-87.3751 39.466)
395162,236,Torrington,msa,CT,78.0,55.0,38.0,30.0,26.0,29.0,39.0,53.0,65.0,77.0,84.0,79.0,66.0,46.0,33.0,26.0,31.0,39.0,41.0,42.0,51.0,57.0,74.0,69.0,60.0,42.0,35.0,31.0,24.0,14.0,15.0,16.0,18.0,19.0,23.0,22.0,17.0,10.0,7.0,7.0,9.0,11.0,13.0,13.0,13.0,15.0,17.0,17.0,12.0,7.0,6.0,7.0,9.0,10.0,12.0,14.0,14.0,15.0,17.0,16.0,13.0,8.0,7.0,8.0,9.0,9.0,10.0,10.0,12.0,14.0,14.0,Torrington,CT,Connecticut,41.8349,-73.1282,35510,344.8,POINT (-73.1282 41.8349)
395009,237,Punta Gorda,msa,FL,42.0,40.0,42.0,43.0,40.0,39.0,35.0,34.0,32.0,31.0,35.0,38.0,47.0,50.0,55.0,52.0,49.0,43.0,37.0,35.0,33.0,33.0,35.0,36.0,38.0,35.0,40.0,41.0,38.0,27.0,19.0,16.0,16.0,17.0,17.0,13.0,9.0,6.0,5.0,5.0,5.0,6.0,6.0,7.0,7.0,8.0,8.0,7.0,6.0,6.0,6.0,8.0,11.0,15.0,18.0,24.0,23.0,24.0,19.0,21.0,20.0,21.0,24.0,26.0,30.0,32.0,35.0,36.0,36.0,37.0,44.0,Punta Gorda,FL,Florida,26.8941,-82.0513,19605,491.5,POINT (-82.0513 26.8941)
394386,239,Billings,msa,MT,47.0,37.0,28.0,23.0,22.0,24.0,33.0,37.0,42.0,53.0,60.0,59.0,44.0,30.0,22.0,16.0,20.0,26.0,31.0,36.0,39.0,47.0,52.0,48.0,33.0,19.0,12.0,14.0,13.0,14.0,12.0,9.0,9.0,10.0,10.0,8.0,5.0,4.0,4.0,5.0,5.0,5.0,6.0,6.0,6.0,6.0,6.0,5.0,5.0,5.0,5.0,5.0,8.0,9.0,12.0,12.0,15.0,19.0,25.0,22.0,19.0,12.0,11.0,10.0,11.0,13.0,17.0,20.0,26.0,32.0,43.0,Billings,MT,Montana,45.7891,-108.5526,131519,998.3,POINT (-108.5526 45.7891)
395018,240,Redding,msa,CA,,,,,,,,,,,,,,,,,,,,,,,,,,,,,,,,,,,,,,,,,,,,,,,,,,,,,,,,,,,,,,,,,,,,,,38.0,47.0,Redding,CA,California,40.5698,-122.365,117163,605.9,POINT (-122.365 40.5698)
394748,241,Kingston,msa,NY,109.0,106.0,91.0,64.0,57.0,62.0,73.0,84.0,86.0,93.0,91.0,103.0,108.0,102.0,81.0,60.0,56.0,61.0,67.0,78.0,86.0,85.0,89.0,96.0,119.0,111.0,104.0,73.0,61.0,46.0,45.0,50.0,55.0,64.0,75.0,77.0,70.0,54.0,46.0,40.0,40.0,44.0,46.0,42.0,37.0,35.0,41.0,43.0,35.0,22.0,16.0,16.0,21.0,27.0,32.0,37.0,40.0,46.0,52.0,53.0,47.0,33.0,24.0,19.0,24.0,29.0,28.0,27.0,27.0,35.0,47.0,Kingston,NY,New York,41.9295,-73.9968,24018,1239.4,POINT (-73.9968 41.9295)
394960,242,Panama City,msa,FL,49.0,37.0,34.0,34.0,37.0,37.0,36.0,38.0,49.0,50.0,47.0,45.0,40.0,40.0,27.0,29.0,33.0,36.0,41.0,41.0,50.0,56.0,65.0,55.0,56.0,53.0,64.0,67.0,61.0,53.0,43.0,35.0,33.0,27.0,38.0,36.0,31.0,17.0,11.0,8.0,6.0,8.0,10.0,12.0,13.0,14.0,13.0,10.0,7.0,6.0,8.0,10.0,14.0,18.0,22.0,26.0,32.0,40.0,46.0,48.0,42.0,33.0,26.0,28.0,34.0,39.0,40.0,38.0,38.0,41.0,49.0,Panama City,FL,Florida,30.1995,-85.6003,169810,373.9,POINT (-85.6003 30.1995)
394729,243,Joplin,msa,MO,45.0,35.0,37.0,33.0,29.0,27.0,25.0,31.0,34.0,41.0,49.0,54.0,49.0,35.0,22.0,21.0,22.0,25.0,28.0,30.0,33.0,39.0,48.0,47.0,39.0,25.0,19.0,14.0,16.0,20.0,21.0,20.0,13.0,15.0,15.0,16.0,12.0,9.0,6.0,6.0,6.0,7.0,8.0,8.0,9.0,10.0,10.0,9.0,7.0,6.0,6.0,6.0,7.0,9.0,10.0,11.0,14.0,17.0,24.0,21.0,18.0,10.0,10.0,9.0,10.0,12.0,12.0,13.0,15.0,20.0,26.0,Joplin,MO,Missouri,37.0757,-94.5018,90384,525.7,POINT (-94.5018 37.0757)
394539,244,Dover,msa,DE,47.0,34.0,33.0,34.0,35.0,40.0,37.0,34.0,31.0,40.0,53.0,53.0,41.0,27.0,22.0,24.0,30.0,33.0,35.0,34.0,35.0,34.0,42.0,41.0,37.0,25.0,21.0,18.0,12.0,10.0,14.0,13.0,14.0,9.0,9.0,8.0,6.0,6.0,5.0,6.0,6.0,7.0,7.0,8.0,8.0,9.0,9.0,9.0,7.0,7.0,6.0,7.0,8.0,9.0,11.0,13.0,16.0,18.0,18.0,16.0,13.0,10.0,10.0,10.0,10.0,10.0,10.0,12.0,14.0,17.0,23.0,Dover,DE,Delaware,39.161,-75.5202,130186,634.2,POINT (-75.5202 39.161)
394559,245,El Centro,msa,CA,28.0,29.0,29.0,24.0,24.0,19.0,24.0,25.0,28.0,31.0,33.0,37.0,34.0,34.0,33.0,33.0,28.0,25.0,18.0,19.0,21.0,25.0,27.0,25.0,25.0,25.0,24.0,26.0,19.0,17.0,10.0,10.0,10.0,15.0,16.0,15.0,9.0,8.0,8.0,8.0,8.0,8.0,9.0,10.0,10.0,10.0,11.0,11.0,11.0,9.0,10.0,9.0,11.0,12.0,13.0,16.0,19.0,22.0,27.0,34.0,35.0,27.0,18.0,13.0,13.0,11.0,12.0,13.0,16.0,22.0,25.0,El Centro,CA,California,32.7865,-115.5595,44184,1412.5,POINT (-115.5595 32.7865)
394712,246,Jackson,msa,TN,,,,,,,,,,,,,,,,,,,,,,,,,,,,,,,,,,,,,,,8.0,8.0,7.0,7.0,10.0,15.0,20.0,21.0,18.0,13.0,10.0,9.0,7.0,7.0,8.0,11.0,13.0,16.0,18.0,26.0,30.0,29.0,23.0,18.0,17.0,17.0,15.0,15.0,16.0,17.0,20.0,20.0,27.0,Jackson,TN,Tennessee,35.6538,-88.8354,72836,446.9,POINT (-88.8354 35.6538)
395246,247,Yuba City,msa,CA,26.0,15.0,12.0,12.0,14.0,17.0,21.0,26.0,31.0,30.0,29.0,22.0,19.0,12.0,12.0,12.0,13.0,14.0,15.0,17.0,19.0,22.0,21.0,18.0,13.0,12.0,13.0,13.0,10.0,8.0,7.0,7.0,8.0,8.0,8.0,8.0,7.0,6.0,7.0,7.0,7.0,8.0,8.0,8.0,9.0,8.0,8.0,7.0,7.0,7.0,9.0,10.0,15.0,19.0,25.0,,29.0,35.0,38.0,35.0,25.0,17.0,13.0,13.0,11.0,12.0,14.0,16.0,22.0,26.0,26.0,Yuba City,CA,California,39.1357,-121.6383,133106,1751.4,POINT (-121.6383 39.1357)
